{
  "facls": [
    {
      "state": "CA",
      "region": "Western",
      "name": "Behavioral Systems Southwest, Inc.",
      "service": "",
      "contractNum": "additional_1",
      "latitude": "34.099124",
      "longitude": "-118.310105",
      "url": "https://www.bop.gov",
      "timeZone": "P",
      "address": "5520 Harold Way",
      "city": "Los Angeles",
      "zipCode": "90028",
      "expirationDate": "09-30-2029",
      "maleBeds": "",
      "femaleBeds": "",
      "totalBeds": "105",
      "phoneNum": "323-464-0817",
      "contractWebSite": "https://behavioralsystemssouthwest.com/"
    },
     {
      "state": "NY",
      "region": "Northeast",
      "name": "GEO Care, Inc.",
      "service": "",
      "contractNum": "additional_2",
      "latitude": "40.863530",
      "longitude": "-73.897260",
      "url": "https://www.bop.gov",
      "timeZone": "E",
      "address": "2532-2534 Creston Avenue",
      "city": "Bronx",
      "zipCode": "10468",
      "expirationDate": "04-30-2020",
      "maleBeds": "",
      "femaleBeds": "",
      "totalBeds": "207",
      "phoneNum": "718-561-4155",
      "contractWebSite": "https://www.geogroup.com/"
    },
     {
      "state": "CT",
      "region": "Northeast",
      "name": "Watkinson House",
      "service": "",
      "contractNum": "additional_3",
      "latitude": "41.772750",
      "longitude": "-72.688660",
      "url": "https://www.bop.gov",
      "timeZone": "E",
      "address": "136 Collins Street",
      "city": "Hartford",
      "zipCode": "06105",
      "expirationDate": "06-30-2020",
      "maleBeds": "",
      "femaleBeds": "",
      "totalBeds": "",
      "phoneNum": "860-524-1898",
      "contractWebSite": ""
    },
    {
      "state": "NH",
      "region": "Northeast",
      "name": "Hampshire House",
      "service": "",
      "contractNum": "additional_4",
      "latitude": "42.999230",
      "longitude": "-71.464180",
      "url": "https://www.bop.gov",
      "timeZone": "E",
      "address": "1490-1492 Elm St",
      "city": "Manchester",
      "zipCode": "03101",
      "expirationDate": "08-31-2023",
      "maleBeds": "",
      "femaleBeds": "",
      "totalBeds": "",
      "phoneNum": "860-524-1898",
      "contractWebSite": ""
    },
    {
      "state": "AZ",
      "region": "Western",
      "name": "Central Arizona Florence Correctional Complex",
      "service": "",
      "contractNum": "additional_5",
      "latitude": "33.044170",
      "longitude": "-111.377200",
      "url": "https://www.bop.gov",
      "timeZone": "E",
      "address": "1155 North Pinal Parkway",
      "city": "Florence",
      "zipCode": "85132",
      "expirationDate": "08-31-2023",
      "maleBeds": "",
      "femaleBeds": "",
      "totalBeds": "",
      "phoneNum": "520-868-3668",
      "contractWebSite": ""
    },
    {
      "state": "NM",
      "region": "Western",
      "name": "Otero County Prison Facility",
      "service": "",
      "contractNum": "additional_6",
      "latitude": "32.078640",
      "longitude": "-106.280840",
      "url": "https://www.bop.gov",
      "timeZone": "W",
      "address": "1155 North Pinal Parkway",
      "city": "Charparral",
      "zipCode": "88310",
      "expirationDate": "",
      "maleBeds": "",
      "femaleBeds": "",
      "totalBeds": "",
      "phoneNum": "575-437-7427",
      "contractWebSite": ""
    },
    {
      "state": "KY",
      "region": "Mid-Atlantic",
      "name": "Dismas of Manchester",
      "service": "",
      "contractNum": "additional_7",
      "latitude": "37.146770",
      "longitude": "-83.779870",
      "url": "https://www.bop.gov",
      "timeZone": "E",
      "address": "845 Muddy Gap Road",
      "city": "Manchester",
      "zipCode": "40962",
      "expirationDate": "",
      "maleBeds": "",
      "femaleBeds": "",
      "totalBeds": "",
      "phoneNum": "606-598-5561",
      "contractWebSite": ""
    },
    {
      "state": "KY",
      "region": "Mid-Atlantic",
      "name": "Dismas Charities Inc.",
      "service": "",
      "contractNum": "additional_8",
      "latitude": "38.115420",
      "longitude": "-84.521020",
      "url": "https://www.bop.gov",
      "timeZone": "E",
      "address": "909 Georgetown Pike",
      "city": "Lexington",
      "zipCode": "40511",
      "expirationDate": "",
      "maleBeds": "",
      "femaleBeds": "",
      "totalBeds": "",
      "phoneNum": "859-231-8448",
      "contractWebSite": ""
    },
    {
      "state": "CA",
      "region": "Western",
      "name": "JL Santa Rita Jail",
      "service": "",
      "contractNum": "additional_9",
      "latitude": "37.717500",
      "longitude": "-121.887940",
      "url": "https://www.bop.gov",
      "timeZone": "P",
      "address": "5325 Broder Blvd",
      "city": "Dublin",
      "zipCode": "94568",
      "expirationDate": "",
      "maleBeds": "",
      "femaleBeds": "",
      "totalBeds": "10",
      "phoneNum": "925-551-6500",
      "contractWebSite": ""
    },
    {
      "state": "NC",
      "region": "Mid-Atlantic",
      "name": "Dismas Charities",
      "service": "",
      "contractNum": "additional_10",
      "latitude": "36.077020",
      "longitude": "-79.787180",
      "url": "https://www.bop.gov",
      "timeZone": "E",
      "address": "307 N Church St",
      "city": "Greensboro",
      "zipCode": "27401",
      "expirationDate": "",
      "maleBeds": "",
      "femaleBeds": "",
      "totalBeds": "10",
      "phoneNum": "336-370-4357",
      "contractWebSite": ""
    },
    {
      "state": "SD",
      "region": "North Central",
      "name": "Community Education Centers",
      "service": "",
      "contractNum": "additional_11",
      "latitude": "44.031840",
      "longitude": "-103.191950",
      "url": "https://www.bop.gov",
      "timeZone": "M",
      "address": "5031 Hwy 79 South",
      "city": "Rapid City",
      "zipCode": "57701",
      "expirationDate": "",
      "maleBeds": "",
      "femaleBeds": "",
      "totalBeds": "11",
      "phoneNum": "605-341-4240",
      "contractWebSite": ""
    },
    {
      "state": "CA",
      "region": "Western",
      "name": "Correctional Alternatives Inc.",
      "service": "",
      "contractNum": "additional_12",
      "latitude": "32.700290",
      "longitude": "-117.117990",
      "url": "https://www.bop.gov",
      "timeZone": "P",
      "address": "551 South 35th Street",
      "city": "San Diego",
      "zipCode": "92113",
      "expirationDate": "",
      "maleBeds": "",
      "femaleBeds": "",
      "totalBeds": "354",
      "phoneNum": "619-232-8600",
      "contractWebSite": ""
    },
    {
      "state": "NM",
      "region": "Western",
      "name": "Dismas Charities Albuguerque",
      "service": "",
      "contractNum": "additional_13",
      "latitude": "35.109850",
      "longitude": "-106.617900",
      "url": "https://www.bop.gov",
      "timeZone": "P",
      "address": "2331 Menaul Blvd. NE",
      "city": "Albuquerque",
      "zipCode": "92113",
      "expirationDate": "",
      "maleBeds": "",
      "femaleBeds": "",
      "totalBeds": "117",
      "phoneNum": "502-636-2033",
      "contractWebSite": ""
    },
    {
      "state": "ND",
      "region": "North Central",
      "name": "Cass County Jail",
      "service": "",
      "contractNum": "additional_14",
      "latitude": "46.869600",
      "longitude": "-96.832520",
      "url": "https://www.bop.gov",
      "timeZone": "C",
      "address": "450 34TH ST. S.",
      "city": "Fargo",
      "zipCode": "58103",
      "expirationDate": "",
      "maleBeds": "",
      "femaleBeds": "",
      "totalBeds": "4",
      "phoneNum": "701-271-2900",
      "contractWebSite": ""
    },
    {
      "state": "NY",
      "region": "Northeast",
      "name": "Horizon House",
      "service": "",
      "contractNum": "additional_15",
      "latitude": "42.641780",
      "longitude": "-73.761190",
      "url": "https://www.bop.gov",
      "timeZone": "E",
      "address": "35-37 Elizabeth Street",
      "city": "Albany",
      "zipCode": "12202",
      "expirationDate": "",
      "maleBeds": "",
      "femaleBeds": "",
      "totalBeds": "56",
      "phoneNum": "518-432-8700",
      "contractWebSite": ""
    },
    {
      "state": "IN",
      "region": "North Central",
      "name": "Volunteers of America Inc.",
      "service": "",
      "contractNum": "additional_16",
      "latitude": "39.776070",
      "longitude": "-86.161060",
      "url": "https://www.bop.gov",
      "timeZone": "E",
      "address": "611 N. Capitol",
      "city": "Indianapolis",
      "zipCode": "46204",
      "expirationDate": "",
      "maleBeds": "",
      "femaleBeds": "",
      "totalBeds": "95",
      "phoneNum": "317-686-9841",
      "contractWebSite": ""
    },
    {
      "state": "NH",
      "region": "Northeast",
      "name": "Warren B. Rudman U.S. Courthouse",
      "service": "",
      "contractNum": "additional_17",
      "latitude": "43.202310",
      "longitude": "-71.539960",
      "url": "https://www.bop.gov",
      "timeZone": "E",
      "address": "55 Pleasant Street, 2nd Floor",
      "city": "Concord",
      "zipCode": "03301",
      "expirationDate": "",
      "maleBeds": "",
      "femaleBeds": "",
      "totalBeds": "",
      "phoneNum": "603-225-1515",
      "contractWebSite": ""
    },
    {
      "state": "FL",
      "region": "South East",
      "name": "Hillsborough County RRC",
      "service": "",
      "contractNum": "additional_18",
      "latitude": "27.994780",
      "longitude": "-82.511700",
      "url": "https://www.bop.gov",
      "timeZone": "E",
      "address": "4102 W. Hillsborough Ave",
      "city": "Tampa",
      "zipCode": "33614",
      "expirationDate": "",
      "maleBeds": "",
      "femaleBeds": "",
      "totalBeds": "120",
      "phoneNum": "813-877-2257",
      "contractWebSite": ""
    },
    {
      "state": "TX",
      "region": "South Central",
      "name": "Crosspoint Inc.",
      "service": "",
      "contractNum": "additional_19",
      "latitude": "29.409720",
      "longitude": "-98.444120",
      "url": "https://www.bop.gov",
      "timeZone": "C",
      "address": "301 Yucca Street",
      "city": "San Antonio",
      "zipCode": "78203",
      "expirationDate": "",
      "maleBeds": "",
      "femaleBeds": "",
      "totalBeds": "140",
      "phoneNum": "210-225-0864",
      "contractWebSite": ""
    },
    {
      "state": "CA",
      "region": "North Western",
      "name": "GEO-Taylor St. Facility",
      "service": "",
      "contractNum": "additional_20",
      "latitude": "37.783300",
      "longitude": "-122.410850",
      "url": "https://www.bop.gov",
      "timeZone": "W",
      "address": "111 Taylor Street",
      "city": "San Francisco",
      "zipCode": "94102",
      "expirationDate": "",
      "maleBeds": "",
      "femaleBeds": "",
      "totalBeds": "170",
      "phoneNum": "415-346-9769",
      "contractWebSite": ""
    },
    {
      "state": "CA",
      "region": "Western",
      "name": "Brawley RRC",
      "service": "",
      "contractNum": "additional_21",
      "latitude": "32.979450",
      "longitude": "-115.530590",
      "url": "https://www.bop.gov",
      "timeZone": "W",
      "address": "718 E. Street",
      "city": "Brawley",
      "zipCode": "92227",
      "expirationDate": "",
      "maleBeds": "",
      "femaleBeds": "",
      "totalBeds": "70",
      "phoneNum": "760-623-1018",
      "contractWebSite": ""
    },
    {
      "state": "IA",
      "region": "North Central",
      "name": "Dismas Charities Inc.",
      "service": "",
      "contractNum": "additional_22",
      "latitude": "42.495080",
      "longitude": "-96.385090",
      "url": "https://www.bop.gov",
      "timeZone": "C",
      "address": "420 Chambers Street",
      "city": "Sioux City",
      "zipCode": "51101",
      "expirationDate": "",
      "maleBeds": "",
      "femaleBeds": "",
      "totalBeds": "42",
      "phoneNum": "712-252-6000",
      "contractWebSite": ""
    },
    {
      "state": "ND",
      "region": "North Central",
      "name": "Community Extended Nuclear TRA",
      "service": "",
      "contractNum": "additional_23",
      "latitude": "46.878450",
      "longitude": "-96.803080",
      "url": "https://www.bop.gov",
      "timeZone": "C",
      "address": "123 15th Street North",
      "city": "Fargo",
      "zipCode": "58102",
      "expirationDate": "",
      "maleBeds": "",
      "femaleBeds": "",
      "totalBeds": "60",
      "phoneNum": "701-237-9340",
      "contractWebSite": ""
    },
    {
      "state": "TX",
      "region": "South Central",
      "name": "Dismas Laredo",
      "service": "",
      "contractNum": "additional_24",
      "latitude": "27.564030",
      "longitude": "-99.507910",
      "url": "https://www.bop.gov",
      "timeZone": "C",
      "address": "6752 Gilbert Road",
      "city": "Laredo",
      "zipCode": "78041",
      "expirationDate": "",
      "maleBeds": "",
      "femaleBeds": "",
      "totalBeds": "63",
      "phoneNum": "956-727-552",
      "contractWebSite": ""
    },
    {
      "state": "TN",
      "region": "Mid-Atlantic",
      "name": "Salvation Army",
      "service": "",
      "contractNum": "additional_25",
      "latitude": "35.043340",
      "longitude": "-85.295390",
      "url": "https://www.bop.gov",
      "timeZone": "C",
      "address": "822 McCallie Ave.",
      "city": "Chattanooga",
      "zipCode": "37403",
      "expirationDate": "",
      "maleBeds": "",
      "femaleBeds": "",
      "totalBeds": "102",
      "phoneNum": "423-756-1023",
      "contractWebSite": ""
    },
    {
      "state": "IA",
      "region": "North Central",
      "name": "The Fifth Judical District of Des Moines",
      "service": "",
      "contractNum": "additional_26",
      "latitude": "41.521630",
      "longitude": "-93.622360",
      "url": "https://www.bop.gov",
      "timeZone": "C",
      "address": "70 Thayer Ave.",
      "city": "Des Moines",
      "zipCode": "50315",
      "expirationDate": "",
      "maleBeds": "",
      "femaleBeds": "",
      "totalBeds": "54",
      "phoneNum": "515-242-6956",
      "contractWebSite": ""
    },
    {
      "state": "KS",
      "region": "South Central",
      "name": "The Mirror Inc.",
      "service": "",
      "contractNum": "additional_27",
      "latitude": "39.022170",
      "longitude": "-95.649120",
      "url": "https://www.bop.gov",
      "timeZone": "C",
      "address": "2201 SE 25th Street",
      "city": "Topeka",
      "zipCode": "66605",
      "expirationDate": "",
      "maleBeds": "",
      "femaleBeds": "",
      "totalBeds": "68",
      "phoneNum": "785-783-3274",
      "contractWebSite": ""
    },
    {
      "state": "NV",
      "region": "Western",
      "name": "Geo Care",
      "service": "",
      "contractNum": "additional_28",
      "latitude": "36.138320",
      "longitude": "-115.169180",
      "url": "https://www.bop.gov",
      "timeZone": "C",
      "address": "2901 Sammy Davis Jr. Dr.",
      "city": "Las Vegas",
      "zipCode": "89109",
      "expirationDate": "",
      "maleBeds": "",
      "femaleBeds": "",
      "totalBeds": "136",
      "phoneNum": "702-953-1162",
      "contractWebSite": ""
    },
    {
      "state": "AZ",
      "region": "Western",
      "name": "Dismas Charities",
      "service": "",
      "contractNum": "additional_29",
      "latitude": "32.184930",
      "longitude": "-110.916220",
      "url": "https://www.bop.gov",
      "timeZone": "M",
      "address": "3443 S. Richey Blvd.",
      "city": "Tucson",
      "zipCode": "85713",
      "expirationDate": "",
      "maleBeds": "",
      "femaleBeds": "",
      "totalBeds": "181",
      "phoneNum": "520-745-0670",
      "contractWebSite": ""
    },
    {
      "state": "GA",
      "region": "Mid-Atlantic",
      "name": "CSC-Dismas Charities",
      "service": "",
      "contractNum": "additional_30",
      "latitude": "33.768100",
      "longitude": "-84.520180",
      "url": "https://www.bop.gov",
      "timeZone": "E",
      "address": "300 Wendell Court",
      "city": "Atlanta",
      "zipCode": "30336",
      "expirationDate": "",
      "maleBeds": "",
      "femaleBeds": "",
      "totalBeds": "215",
      "phoneNum": "404-691-1425",
      "contractWebSite": ""
    },
    {
      "state": "TX",
      "region": "South Central",
      "name": "GEO Care Inc.",
      "service": "",
      "contractNum": "additional_31",
      "latitude": "25.909870",
      "longitude": "-97.507560",
      "url": "https://www.bop.gov",
      "timeZone": "C",
      "address": "5965 N. Expressway 77/83",
      "city": "Brownsville",
      "zipCode": "78520",
      "expirationDate": "",
      "maleBeds": "",
      "femaleBeds": "",
      "totalBeds": "100",
      "phoneNum": "956-350-3070",
      "contractWebSite": ""
    },
    {
      "state": "WI",
      "region": "North Central",
      "name": "Wisconsin Community Svs",
      "service": "",
      "contractNum": "additional_32",
      "latitude": "43.072180",
      "longitude": "-87.944500",
      "url": "https://www.bop.gov",
      "timeZone": "C",
      "address": "2930 N. 25th St.",
      "city": "Milwaukee",
      "zipCode": "53206",
      "expirationDate": "",
      "maleBeds": "",
      "femaleBeds": "",
      "totalBeds": "67",
      "phoneNum": "414-445-3301",
      "contractWebSite": ""
    },
    {
      "state": "AZ",
      "region": "Western",
      "name": "Working Alternatives",
      "service": "",
      "contractNum": "additional_33",
      "latitude": "35.191380",
      "longitude": "-111.666500",
      "url": "https://www.bop.gov",
      "timeZone": "C",
      "address": "1120 Kaibab Lane",
      "city": "Flagstaff",
      "zipCode": "86001",
      "expirationDate": "",
      "maleBeds": "",
      "femaleBeds": "",
      "totalBeds": "60",
      "phoneNum": "928-421-2602",
      "contractWebSite": ""
    },
    {
      "state": "TX",
      "region": "South Central",
      "name": "ACS Corrections",
      "service": "",
      "contractNum": "additional_34",
      "latitude": "30.187100",
      "longitude": "-97.603360",
      "url": "https://www.bop.gov",
      "timeZone": "C",
      "address": "3154 East Highway 71",
      "city": "Del Valle",
      "zipCode": "78617",
      "expirationDate": "",
      "maleBeds": "",
      "femaleBeds": "",
      "totalBeds": "97",
      "phoneNum": "512-386-5300",
      "contractWebSite": ""
    },
    {
      "state": "TX",
      "region": "South Central",
      "name": "GEO Group Inc.",
      "service": "",
      "contractNum": "additional_35",
      "latitude": "26.277750",
      "longitude": "-98.169070",
      "url": "https://www.bop.gov",
      "timeZone": "C",
      "address": "2520 S. Expressway 281",
      "city": "Edinburg",
      "zipCode": "78539",
      "expirationDate": "",
      "maleBeds": "",
      "femaleBeds": "",
      "totalBeds": "118",
      "phoneNum": "956-383-0663",
      "contractWebSite": ""
    },
    {
      "state": "CA",
      "region": "Western",
      "name": "Fresno County Jail",
      "service": "",
      "contractNum": "additional_36",
      "latitude": "36.738190",
      "longitude": "-119.789680",
      "url": "https://www.bop.gov",
      "timeZone": "C",
      "address": "1225 M. Street",
      "city": "Fresno",
      "zipCode": "93721",
      "expirationDate": "",
      "maleBeds": "",
      "femaleBeds": "",
      "totalBeds": "11",
      "phoneNum": "559-600-8440",
      "contractWebSite": ""
    },
    {
      "state": "AR",
      "region": "South Central",
      "name": "City of Faith RRC",
      "service": "",
      "contractNum": "additional_37",
      "latitude": "34.737860",
      "longitude": "-92.329010",
      "url": "https://www.bop.gov",
      "timeZone": "C",
      "address": "1401 South Garfield Drive",
      "city": "Little Rock",
      "zipCode": "72204",
      "expirationDate": "",
      "maleBeds": "",
      "femaleBeds": "",
      "totalBeds": "130",
      "phoneNum": "501-615-1090",
      "contractWebSite": ""
    },
    {
      "state": "UT",
      "region": "Western",
      "name": "GEO Care Salt Lake City Center",
      "service": "",
      "contractNum": "additional_38",
      "latitude": "40.725430",
      "longitude": "-111.935890",
      "url": "https://www.bop.gov",
      "timeZone": "M",
      "address": "1585 West 2100 South",
      "city": "Salt Lake City",
      "zipCode": "84119",
      "expirationDate": "",
      "maleBeds": "",
      "femaleBeds": "",
      "totalBeds": "100",
      "phoneNum": "801-973-3800",
      "contractWebSite": ""
    },
    {
      "state": "FL",
      "region": "Southeast",
      "name": "Keeton Corrections Inc.",
      "service": "",
      "contractNum": "additional_39",
      "latitude": "30.349020",
      "longitude": "-81.734090",
      "url": "https://www.bop.gov",
      "timeZone": "E",
      "address": "2020 Dahlia Road",
      "city": "Jacksonville",
      "zipCode": "32254",
      "expirationDate": "",
      "maleBeds": "",
      "femaleBeds": "",
      "totalBeds": "64",
      "phoneNum": "904-7837618",
      "contractWebSite": ""
    },
    {
      "state": "FL",
      "region": "Southeast",
      "name": "Salvation Army",
      "service": "",
      "contractNum": "additional_40",
      "latitude": "26.633060",
      "longitude": "-81.863850",
      "url": "https://www.bop.gov",
      "timeZone": "E",
      "address": "2400 Edison Ave.",
      "city": "Fort Myers",
      "zipCode": "33902",
      "expirationDate": "",
      "maleBeds": "",
      "femaleBeds": "",
      "totalBeds": "47",
      "phoneNum": "239-333-0140",
      "contractWebSite": ""
    },
    {
      "state": "FL",
      "region": "Southeast",
      "name": "Riverside Christian Ministries",
      "service": "",
      "contractNum": "additional_41",
      "latitude": "25.775290",
      "longitude": "-80.210710",
      "url": "https://www.bop.gov",
      "timeZone": "E",
      "address": "968 N.W. 2nd Street",
      "city": "Miami",
      "zipCode": "33128",
      "expirationDate": "",
      "maleBeds": "",
      "femaleBeds": "",
      "totalBeds": "88",
      "phoneNum": "305-545-0926",
      "contractWebSite": ""
    },
    {
      "state": "TX",
      "region": "South Central",
      "name": "Dismas Charities",
      "service": "",
      "contractNum": "additional_42",
      "latitude": "29.369210",
      "longitude": "-100.888950",
      "url": "https://www.bop.gov",
      "timeZone": "C",
      "address": "1306 E. Gibbs Street",
      "city": "Del Rio",
      "zipCode": "78840",
      "expirationDate": "",
      "maleBeds": "",
      "femaleBeds": "",
      "totalBeds": "52",
      "phoneNum": "830-775-1580",
      "contractWebSite": ""
    },
    {
      "state": "MS",
      "region": "South Central",
      "name": "Dismas Charities",
      "service": "",
      "contractNum": "additional_43",
      "latitude": "31.346480",
      "longitude": "-89.315640",
      "url": "https://www.bop.gov",
      "timeZone": "C",
      "address": "5209 Highway 42 Bypass",
      "city": "Hattiesburg",
      "zipCode": "39401",
      "expirationDate": "",
      "maleBeds": "",
      "femaleBeds": "",
      "totalBeds": "54",
      "phoneNum": "601-582-0843",
      "contractWebSite": ""
    },
    {
      "state": "MT",
      "region": "North Central",
      "name": "Alternatives Incorporated",
      "service": "",
      "contractNum": "additional_44",
      "latitude": "45.780520",
      "longitude": "-108.509860",
      "url": "https://www.bop.gov",
      "timeZone": "C",
      "address": "104 North 31st Street",
      "city": "Billings",
      "zipCode": "59101",
      "expirationDate": "",
      "maleBeds": "",
      "femaleBeds": "",
      "totalBeds": "41",
      "phoneNum": "406-259-9695",
      "contractWebSite": ""
    },
    {
      "state": "TN",
      "region": "South East",
      "name": "Dismas Charities",
      "service": "",
      "contractNum": "additional_45",
      "latitude": "35.052980",
      "longitude": "-90.009350",
      "url": "https://www.bop.gov",
      "timeZone": "C",
      "address": "1629 Winchester Rd",
      "city": "Memphis",
      "zipCode": "38116",
      "expirationDate": "",
      "maleBeds": "",
      "femaleBeds": "",
      "totalBeds": "119",
      "phoneNum": "901-395-947",
      "contractWebSite": ""
    },
    {
      "state": "TX",
      "region": "South Central",
      "name": "Vol. of America Fort Worth Texas",
      "service": "",
      "contractNum": "additional_46",
      "latitude": "32.726510",
      "longitude": "-97.286900",
      "url": "https://www.bop.gov",
      "timeZone": "C",
      "address": "2710 Avenue J",
      "city": "Ft. Worth",
      "zipCode": "76105",
      "expirationDate": "",
      "maleBeds": "",
      "femaleBeds": "",
      "totalBeds": "88",
      "phoneNum": "817-535-853",
      "contractWebSite": ""
    },
    {
      "state": "NC",
      "region": "Mid Atlantic",
      "name": "Corecivic",
      "service": "",
      "contractNum": "additional_47",
      "latitude": "35.732010",
      "longitude": "-78.645820",
      "url": "https://www.bop.gov",
      "timeZone": "E",
      "address": "312 Tryon Road",
      "city": "Raleigh",
      "zipCode": "27603",
      "expirationDate": "",
      "maleBeds": "",
      "femaleBeds": "",
      "totalBeds": "55",
      "phoneNum": "919-773-1834",
      "contractWebSite": ""
    },
    {
      "state": "VA",
      "region": "Mid Atlantic",
      "name": "Corecivic",
      "service": "",
      "contractNum": "additional_48",
      "latitude": "36.867880",
      "longitude": "-76.288730",
      "url": "https://www.bop.gov",
      "timeZone": "E",
      "address": "300 West 20th Street",
      "city": "Norfolk",
      "zipCode": "23517",
      "expirationDate": "",
      "maleBeds": "",
      "femaleBeds": "",
      "totalBeds": "36",
      "phoneNum": "757-625-3507",
      "contractWebSite": ""
    },
    {
      "state": "OH",
      "region": "Northeast",
      "name": "Oriana House Inc.",
      "service": "",
      "contractNum": "additional_49",
      "latitude": "41.509540",
      "longitude": "-81.651230",
      "url": "https://www.bop.gov",
      "timeZone": "C",
      "address": "1829 East 55th Street",
      "city": "Cleveland",
      "zipCode": "44103",
      "expirationDate": "",
      "maleBeds": "",
      "femaleBeds": "",
      "totalBeds": "119",
      "phoneNum": "216-881-7882",
      "contractWebSite": ""
    },
    {
      "state": "TX",
      "region": "South Central",
      "name": "Dismas Charities",
      "service": "",
      "contractNum": "additional_50",
      "latitude": "31.975470",
      "longitude": "-102.106760",
      "url": "https://www.bop.gov",
      "timeZone": "C",
      "address": "24 West Industrial Loop",
      "city": "Midland",
      "zipCode": "79701",
      "expirationDate": "",
      "maleBeds": "",
      "femaleBeds": "",
      "totalBeds": "94",
      "phoneNum": "432-686-9188",
      "contractWebSite": ""
    },
    {
      "state": "CA",
      "region": "Western",
      "name": "GEO Group Inc.",
      "service": "",
      "contractNum": "additional_51",
      "latitude": "34.074230",
      "longitude": "-118.017570",
      "url": "https://www.bop.gov",
      "timeZone": "C",
      "address": "11750 Ramona Boulevard",
      "city": "El Monte",
      "zipCode": "79701",
      "expirationDate": "",
      "maleBeds": "",
      "femaleBeds": "",
      "totalBeds": "105",
      "phoneNum": "626-454-4593",
      "contractWebSite": ""
    },
    {
      "state": "OR",
      "region": "Western",
      "name": "NW Regional Re-Entry Center",
      "service": "",
      "contractNum": "additional_52",
      "latitude": "45.566650",
      "longitude": "-122.578350",
      "url": "https://www.bop.gov",
      "timeZone": "W",
      "address": "6000 N.E. 80th Ave",
      "city": "Portland",
      "zipCode": "97218",
      "expirationDate": "",
      "maleBeds": "",
      "femaleBeds": "",
      "totalBeds": "105",
      "phoneNum": "503-231-7785",
      "contractWebSite": ""
    },
    {
      "state": "MD",
      "region": "Mid-Atlantic",
      "name": "Volunteers of America Inc.",
      "service": "",
      "contractNum": "additional_53",
      "latitude": "39.300120",
      "longitude": "-76.554240",
      "url": "https://www.bop.gov",
      "timeZone": "E",
      "address": "5000 East Monument St.",
      "city": "Baltimore",
      "zipCode": "21205",
      "expirationDate": "",
      "maleBeds": "",
      "femaleBeds": "",
      "totalBeds": "148",
      "phoneNum": "410-276-5880",
      "contractWebSite": ""
    },
    {
      "state": "OH",
      "region": "Northeast",
      "name": "Alvis House Inc.",
      "service": "",
      "contractNum": "additional_54",
      "latitude": "39.930910",
      "longitude": "-82.942940",
      "url": "https://www.bop.gov",
      "timeZone": "C",
      "address": "1755 Alum Creek Drive",
      "city": "Columbus",
      "zipCode": "43207",
      "expirationDate": "",
      "maleBeds": "",
      "femaleBeds": "",
      "totalBeds": "62",
      "phoneNum": "614-443-4989",
      "contractWebSite": ""
    },
    {
      "state": "OH",
      "region": "Northeast",
      "name": "ATalbert House Inc.",
      "service": "",
      "contractNum": "additional_55",
      "latitude": "39.121660",
      "longitude": "-84.515220",
      "url": "https://www.bop.gov",
      "timeZone": "C",
      "address": "2216 Vine St.",
      "city": "Cincinnati",
      "zipCode": "45219",
      "expirationDate": "",
      "maleBeds": "",
      "femaleBeds": "",
      "totalBeds": "67",
      "phoneNum": "513-684-7965",
      "contractWebSite": ""
    },
    {
      "state": "AL",
      "region": "Southeast",
      "name": "Baldwin County Jail",
      "service": "",
      "contractNum": "additional_56",
      "latitude": "30.884920",
      "longitude": "-87.774990",
      "url": "https://www.bop.gov",
      "timeZone": "C",
      "address": "310 Hand Ave.",
      "city": "Bay Minette",
      "zipCode": "36507",
      "expirationDate": "",
      "maleBeds": "",
      "femaleBeds": "",
      "totalBeds": "5",
      "phoneNum": "251-937-0361",
      "contractWebSite": ""
    },
    {
      "state": "FL",
      "region": "Southeast",
      "name": "Dismas Charities Inc.",
      "service": "",
      "contractNum": "additional_57",
      "latitude": "28.619100",
      "longitude": "-81.435050",
      "url": "https://www.bop.gov",
      "timeZone": "E",
      "address": "6860 Edgewater Commerce Pkwy.",
      "city": "Orlando",
      "zipCode": "32810",
      "expirationDate": "",
      "maleBeds": "",
      "femaleBeds": "",
      "totalBeds": "125",
      "phoneNum": "407-295-1989",
      "contractWebSite": ""
    },
    {
      "state": "CA",
      "region": "Western",
      "name": "Behavioral Systems Southwest",
      "service": "",
      "contractNum": "additional_58",
      "latitude": "34.218220",
      "longitude": "-118.472430",
      "url": "https://www.bop.gov",
      "timeZone": "W",
      "address": "8141 Orion Ave.",
      "city": "Van Nuys",
      "zipCode": "91406",
      "expirationDate": "",
      "maleBeds": "",
      "femaleBeds": "",
      "totalBeds": "105",
      "phoneNum": "818-780-5139",
      "contractWebSite": ""
    },
    {
      "state": "CA",
      "region": "Western",
      "name": "Working Alternatives GG",
      "service": "",
      "contractNum": "additional_59",
      "latitude": "34.218220",
      "longitude": "-118.472427",
      "url": "https://www.bop.gov",
      "timeZone": "W",
      "address": "11112 Barclay Dr.",
      "city": "Garden Grove",
      "zipCode": "92841",
      "expirationDate": "",
      "maleBeds": "",
      "femaleBeds": "",
      "totalBeds": "70",
      "phoneNum": "714-537-3607",
      "contractWebSite": ""
    },
    {
      "state": "FL",
      "region": "South East",
      "name": "Salvation Army",
      "service": "",
      "contractNum": "additional_60",
      "latitude": "26.700650",
      "longitude": "-80.112830",
      "url": "https://www.bop.gov",
      "timeZone": "W",
      "address": "1577 North Military Trail",
      "city": "West Palm Beach",
      "zipCode": "33409",
      "expirationDate": "",
      "maleBeds": "",
      "femaleBeds": "",
      "totalBeds": "115",
      "phoneNum": "561-689-1212",
      "contractWebSite": ""
    },
    {
      "state": "VA",
      "region": "Eastern",
      "name": "Secor Incorporated",
      "service": "",
      "contractNum": "additional_61",
      "latitude": "36.905120",
      "longitude": "-82.077110",
      "url": "https://www.bop.gov",
      "timeZone": "E",
      "address": "168 Rogers Street POB 879",
      "city": "Lebanon",
      "zipCode": "24266",
      "expirationDate": "",
      "maleBeds": "",
      "femaleBeds": "",
      "totalBeds": "47",
      "phoneNum": "276-889-1530",
      "contractWebSite": ""
    },
    {
      "state": "NE",
      "region": "North Central",
      "name": "Dismas Charities Inc.",
      "service": "",
      "contractNum": "additional_62",
      "latitude": "41.318890",
      "longitude": "-95.922810",
      "url": "https://www.bop.gov",
      "timeZone": "E",
      "address": "506 Crown Point Avenue",
      "city": "Omaha",
      "zipCode": "68110",
      "expirationDate": "",
      "maleBeds": "",
      "femaleBeds": "",
      "totalBeds": "143",
      "phoneNum": "531-444-4450",
      "contractWebSite": ""
    },
    {
      "state": "RQ",
      "region": "Southeast",
      "name": "Volunteers of America Inc.",
      "service": "",
      "contractNum": "additional_63",
      "latitude": "18.443070",
      "longitude": "-66.067150",
      "url": "https://www.bop.gov",
      "timeZone": "E",
      "address": "1606 Fernandez Juncos Ave.",
      "city": "San Juan",
      "zipCode": "909",
      "expirationDate": "",
      "maleBeds": "",
      "femaleBeds": "",
      "totalBeds": "161",
      "phoneNum": "787-191-0470",
      "contractWebSite": ""
    },
    {
      "state": "MO",
      "region": "North Central",
      "name": "Alpha House of Springfield",
      "service": "",
      "contractNum": "additional_64",
      "latitude": "37.224890",
      "longitude": "-93.249940",
      "url": "https://www.bop.gov",
      "timeZone": "E",
      "address": "2300 E. Division Street",
      "city": "Springfield",
      "zipCode": "65803",
      "expirationDate": "",
      "maleBeds": "",
      "femaleBeds": "",
      "totalBeds": "85",
      "phoneNum": "417-831-3033",
      "contractWebSite": ""
    },
    {
      "state": "TX",
      "region": "South Central",
      "name": "County Rehabilitation Center",
      "service": "",
      "contractNum": "additional_65",
      "latitude": "32.374630",
      "longitude": "-95.367090",
      "url": "https://www.bop.gov",
      "timeZone": "C",
      "address": "12137 CR 46",
      "city": "Tyler",
      "zipCode": "75704",
      "expirationDate": "",
      "maleBeds": "",
      "femaleBeds": "",
      "totalBeds": "144",
      "phoneNum": "903-593-3131",
      "contractWebSite": ""
    },
    {
      "state": "TN",
      "region": "Mid-Atlantic",
      "name": "Midway Rehabilitation Center",
      "service": "",
      "contractNum": "additional_66",
      "latitude": "35.978740",
      "longitude": "-83.909570",
      "url": "https://www.bop.gov",
      "timeZone": "C",
      "address": "1515 E. Magnolia Avenue",
      "city": "Knoxville",
      "zipCode": "37927",
      "expirationDate": "",
      "maleBeds": "",
      "femaleBeds": "",
      "totalBeds": "110",
      "phoneNum": "865-522-3010",
      "contractWebSite": ""
    },
    {
      "state": "CA",
      "region": "Western",
      "name": "BEHAVIORAL SYSTEMS S. W.",
      "service": "",
      "contractNum": "additional_67",
      "latitude": "34.002540",
      "longitude": "-117.403040",
      "url": "https://www.bop.gov",
      "timeZone": "P",
      "address": "3263 RUBIDOUX BLVD",
      "city": "Rubidoux",
      "zipCode": "92509",
      "expirationDate": "",
      "maleBeds": "",
      "femaleBeds": "",
      "totalBeds": "78",
      "phoneNum": "951-684-4840",
      "contractWebSite": ""
    },
    {
      "state": "MN",
      "region": "North Central",
      "name": "Volunteers of America of Minnesota",
      "service": "",
      "contractNum": "additional_68",
      "latitude": "44.994440",
      "longitude": "-93.124780",
      "url": "https://www.bop.gov",
      "timeZone": "C",
      "address": "1771 Kent Street",
      "city": "Roseville",
      "zipCode": "55113",
      "expirationDate": "",
      "maleBeds": "",
      "femaleBeds": "",
      "totalBeds": "60",
      "phoneNum": "651-488-2073",
      "contractWebSite": ""
    },
    {
      "state": "CA",
      "region": "Western",
      "name": "GEO Reentry Inc.",
      "service": "",
      "contractNum": "additional_69",
      "latitude": "33.951040",
      "longitude": "-118.255110",
      "url": "https://www.bop.gov",
      "timeZone": "W",
      "address": "9411 S. Central Ave.",
      "city": "Los Angeles",
      "zipCode": "90002",
      "expirationDate": "",
      "maleBeds": "",
      "femaleBeds": "",
      "totalBeds": "85",
      "phoneNum": "323-563-1126",
      "contractWebSite": ""
    },
    {
      "state": "NM",
      "region": "Western",
      "name": "Dismas Charities",
      "service": "",
      "contractNum": "additional_70",
      "latitude": "32.312080",
      "longitude": "-106.799980",
      "url": "https://www.bop.gov",
      "timeZone": "W",
      "address": "1595 W. Picacho",
      "city": "Las Cruces",
      "zipCode": "88005",
      "expirationDate": "",
      "maleBeds": "",
      "femaleBeds": "",
      "totalBeds": "55",
      "phoneNum": "575-647-1450",
      "contractWebSite": ""
    },
    {
      "state": "ND",
      "region": "North Central",
      "name": "Community Extended Nuclear TRA",
      "service": "",
      "contractNum": "additional_71",
      "latitude": "46.825740",
      "longitude": "-100.879860",
      "url": "https://www.bop.gov",
      "timeZone": "C",
      "address": "100 6th Ave Southeast",
      "city": "Mandan",
      "zipCode": "58554",
      "expirationDate": "",
      "maleBeds": "",
      "femaleBeds": "",
      "totalBeds": "41",
      "phoneNum": "701-667=7651",
      "contractWebSite": ""
    },
    {
      "state": "AL",
      "region": "South East",
      "name": "Dismas Charities Inc.",
      "service": "",
      "contractNum": "additional_72",
      "latitude": "32.323109",
      "longitude": "-86.304047",
      "url": "https://www.bop.gov",
      "timeZone": "C",
      "address": "125 E. Fleming Road",
      "city": "Montgomery",
      "zipCode": "36105",
      "expirationDate": "",
      "maleBeds": "",
      "femaleBeds": "",
      "totalBeds": "57",
      "phoneNum": "334-281-3220",
      "contractWebSite": ""
    },
    {
      "state": "IA",
      "region": "North Central",
      "name": "Linn County Correctional Center",
      "service": "",
      "contractNum": "additional_73",
      "latitude": "41.974640",
      "longitude": "-91.669210",
      "url": "https://www.bop.gov",
      "timeZone": "C",
      "address": "53 3rd Ave Bridge POB 608",
      "city": "Cedar Rapids",
      "zipCode": "52407",
      "expirationDate": "",
      "maleBeds": "",
      "femaleBeds": "",
      "totalBeds": "5",
      "phoneNum": "319-892-6300",
      "contractWebSite": ""
    },
    {
      "state": "OR",
      "region": "North Western",
      "name": "Lane County Department of Public Safety",
      "service": "",
      "contractNum": "additional_74",
      "latitude": "44.054930",
      "longitude": "-123.094570",
      "url": "https://www.bop.gov",
      "timeZone": "W",
      "address": "75 W. 5th Ave",
      "city": "Eugene",
      "zipCode": "97401",
      "expirationDate": "",
      "maleBeds": "",
      "femaleBeds": "",
      "totalBeds": "28",
      "phoneNum": "541-682-2297",
      "contractWebSite": ""
    },
	{
      "state": "FL",
      "region": "South East",
      "name": "Keeton Corrections Inc",
      "service": "",
      "contractNum": "additional_75",
      "latitude": "30.406650",
      "longitude": "-84.306720",
      "url": "https://www.bop.gov",
      "timeZone": "E",
      "address": "3190 Springhill Rd",
      "city": "Tallahassee",
      "zipCode": "32305",
      "expirationDate": "",
      "maleBeds": "",
      "femaleBeds": "",
      "totalBeds": "42",
      "phoneNum": "850-425-1181",
      "contractWebSite": ""
    },
	{
      "state": "WI",
      "region": "North Central",
      "name": "Lutherin Social Services",
      "service": "",
      "contractNum": "additional_76",
      "latitude": "44.786290",
      "longitude": "-91.519780",
      "url": "https://www.bop.gov",
      "timeZone": "C",
      "address": "3136 Craig Road",
      "city": "Eau Claire",
      "zipCode": "54701",
      "expirationDate": "",
      "maleBeds": "",
      "femaleBeds": "",
      "totalBeds": "21",
      "phoneNum": "715-835-9110",
      "contractWebSite": ""
    },
    {
      "state": "MT",
      "region": "North Central",
      "name": "Alternatives Incorporated",
      "service": "",
      "contractNum": "additional_77",
      "latitude": "45.771990",
      "longitude": "-108.493590",
      "url": "https://www.bop.gov",
      "timeZone": "C",
      "address": "1001 South 27th St.",
      "city": "Billings",
      "zipCode": "59101",
      "expirationDate": "",
      "maleBeds": "",
      "femaleBeds": "",
      "totalBeds": "12",
      "phoneNum": "406-294-9609",
      "contractWebSite": ""
    },
    {
      "state": "NY",
      "region": "North East",
      "name": "Firetree LTD.",
      "service": "",
      "contractNum": "additional_78",
      "latitude": "43.050980",
      "longitude": "-76.141760",
      "url": "https://www.bop.gov",
      "timeZone": "E",
      "address": "701 Erie Boulevard East",
      "city": "Syracuse",
      "zipCode": "13210",
      "expirationDate": "",
      "maleBeds": "",
      "femaleBeds": "",
      "totalBeds": "50",
      "phoneNum": "315-442-5949",
      "contractWebSite": ""
    },
    {
      "state": "GA",
      "region": "Southeast",
      "name": "Dismas Charities Inc.",
      "service": "",
      "contractNum": "additional_79",
      "latitude": "45.771990",
      "longitude": "-108.493590",
      "url": "https://www.bop.gov",
      "timeZone": "E",
      "address": "602 Taylor Street",
      "city": "Augusta",
      "zipCode": "30901",
      "expirationDate": "",
      "maleBeds": "",
      "femaleBeds": "",
      "totalBeds": "35",
      "phoneNum": "762-333-8814",
      "contractWebSite": ""
    },
    {
      "state": "GA",
      "region": "Southeast",
      "name": "Dismas Charities Inc.",
      "service": "",
      "contractNum": "additional_80",
      "latitude": "32.078950",
      "longitude": "-81.133380",
      "url": "https://www.bop.gov",
      "timeZone": "E",
      "address": "1006 Lynes Avenue",
      "city": "Savannah",
      "zipCode": "31415",
      "expirationDate": "",
      "maleBeds": "",
      "femaleBeds": "",
      "totalBeds": "69",
      "phoneNum": "912-233-8322",
      "contractWebSite": ""
    },
    {
      "state": "SC",
      "region": "Southeast",
      "name": "Alston Wilkes Society",
      "service": "",
      "contractNum": "additional_81",
      "latitude": "34.195430",
      "longitude": "-79.773480",
      "url": "https://www.bop.gov",
      "timeZone": "E",
      "address": "441 West Cheves Street",
      "city": "Florence",
      "zipCode": "29501",
      "expirationDate": "",
      "maleBeds": "",
      "femaleBeds": "",
      "totalBeds": "52",
      "phoneNum": "843-292-0388",
      "contractWebSite": ""
    },
    {
      "state": "MI",
      "region": "North Central",
      "name": "Michigan Dept of Corrections",
      "service": "",
      "contractNum": "additional_82",
      "latitude": "46.513240",
      "longitude": "-87.376870",
      "url": "https://www.bop.gov",
      "timeZone": "C",
      "address": "1930 US 41 South",
      "city": "Marquette",
      "zipCode": "49855",
      "expirationDate": "",
      "maleBeds": "",
      "femaleBeds": "",
      "totalBeds": "10",
      "phoneNum": "906-226-6531",
      "contractWebSite": ""
    },
    {
      "state": "NY",
      "region": "North East",
      "name": "Community Resources for Justic",
      "service": "",
      "contractNum": "additional_83",
      "latitude": "42.912410",
      "longitude": "-78.861520",
      "url": "https://www.bop.gov",
      "timeZone": "E",
      "address": "117 Glenwood Avenue",
      "city": "Buffalo",
      "zipCode": "14209",
      "expirationDate": "",
      "maleBeds": "",
      "femaleBeds": "",
      "totalBeds": "45",
      "phoneNum": "617-780-6681",
      "contractWebSite": ""
    },
    {
      "state": "NE",
      "region": "South Central",
      "name": "Dismas Charities, Inc.",
      "service": "",
      "contractNum": "additional_84",
      "latitude": "40.678030",
      "longitude": "-99.081640",
      "url": "https://www.bop.gov",
      "timeZone": "C",
      "address": "401 Central Avenue",
      "city": "Kearney",
      "zipCode": "68847",
      "expirationDate": "",
      "maleBeds": "",
      "femaleBeds": "",
      "totalBeds": "36",
      "phoneNum": "308-237-6630",
      "contractWebSite": ""
    },
    {
      "state": "MT",
      "region": "North Central",
      "name": "Great Falls Pre-Release Center",
      "service": "",
      "contractNum": "additional_85",
      "latitude": "47.516680",
      "longitude": "-111.280290",
      "url": "https://www.bop.gov",
      "timeZone": "M",
      "address": "1019 15th St. North",
      "city": "Great Falls",
      "zipCode": "59401",
      "expirationDate": "",
      "maleBeds": "",
      "femaleBeds": "",
      "totalBeds": "27",
      "phoneNum": "406-727-9440",
      "contractWebSite": ""
    },
    {
      "state": "KY",
      "region": "Mid-Atlantic",
      "name": "Dismas Charities Louisville",
      "service": "",
      "contractNum": "additional_86",
      "latitude": "38.234490",
      "longitude": "-85.756660",
      "url": "https://www.bop.gov",
      "timeZone": "E",
      "address": "124 West Oak Street",
      "city": "Louisville",
      "zipCode": "40203",
      "expirationDate": "",
      "maleBeds": "",
      "femaleBeds": "",
      "totalBeds": "69",
      "phoneNum": "502-634-3608",
      "contractWebSite": ""
    },
    {
      "state": "ID",
      "region": "North Central",
      "name": "Port of Hope",
      "service": "",
      "contractNum": "additional_87",
      "latitude": "43.606490",
      "longitude": "-116.260200",
      "url": "https://www.bop.gov",
      "timeZone": "M",
      "address": "7360 W. Bethel Street",
      "city": "Boise",
      "zipCode": "83704",
      "expirationDate": "",
      "maleBeds": "",
      "femaleBeds": "",
      "totalBeds": "47",
      "phoneNum": "208-318-1620",
      "contractWebSite": ""
    },
    {
      "state": "IL",
      "region": "North Central",
      "name": "Family guidance Centers Inc.",
      "service": "",
      "contractNum": "additional_88",
      "latitude": "39.802350",
      "longitude": "-89.640090",
      "url": "https://www.bop.gov",
      "timeZone": "C",
      "address": "120 North 11th St.",
      "city": "Springfield",
      "zipCode": "62703",
      "expirationDate": "",
      "maleBeds": "",
      "femaleBeds": "",
      "totalBeds": "45",
      "phoneNum": "217-544-9858",
      "contractWebSite": ""
    },
    {
      "state": "CO",
      "region": "Western",
      "name": "RRK Enterprises DBA Independence House",
      "service": "",
      "contractNum": "additional_89",
      "latitude": "39.666270",
      "longitude": "-105.025620",
      "url": "https://www.bop.gov",
      "timeZone": "M",
      "address": "2765 South Federal Blvd.",
      "city": "Denver",
      "zipCode": "80236",
      "expirationDate": "",
      "maleBeds": "",
      "femaleBeds": "",
      "totalBeds": "126",
      "phoneNum": "303-936-2035",
      "contractWebSite": ""
    },
	{
      "state": "IL",
      "region": "North Central",
      "name": "Human Service Center",
      "service": "",
      "contractNum": "additional_90",
      "latitude": "40.700150",
      "longitude": "-89.579780",
      "url": "https://www.bop.gov",
      "timeZone": "C",
      "address": "1005 N.E. Jefferson",
      "city": "Peoria",
      "zipCode": "61603",
      "expirationDate": "",
      "maleBeds": "",
      "femaleBeds": "",
      "totalBeds": "45",
      "phoneNum": "309-671-8966",
      "contractWebSite": ""
    },
	{
      "state": "NJ",
      "region": "Eastern",
      "name": "The Klintock Group Inc.",
      "service": "",
      "contractNum": "additional_91",
      "latitude": "40.702720",
      "longitude": "-74.192520",
      "url": "https://www.bop.gov",
      "timeZone": "E",
      "address": "37-47 LEGAL STREET",
      "city": "Newark",
      "zipCode": "07114",
      "expirationDate": "",
      "maleBeds": "",
      "femaleBeds": "",
      "totalBeds": "95",
      "phoneNum": "973-622-1400",
      "contractWebSite": ""
    },
    {
      "state": "IL",
      "region": "North Central",
      "name": "Centerstone of Illinois",
      "service": "",
      "contractNum": "additional_92",
      "latitude": "37.730510",
      "longitude": "-88.939910",
      "url": "https://www.bop.gov",
      "timeZone": "C",
      "address": "1307 W. Main St.",
      "city": "Marion",
      "zipCode": "62959",
      "expirationDate": "",
      "maleBeds": "",
      "femaleBeds": "",
      "totalBeds": "80",
      "phoneNum": "618-997-5336",
      "contractWebSite": ""
    },
    {
      "state": "IN",
      "region": "North Central",
      "name": "Volunteers of America of IN",
      "service": "",
      "contractNum": "additional_93",
      "latitude": "37.979880",
      "longitude": "-87.548950",
      "url": "https://www.bop.gov",
      "timeZone": "C",
      "address": "811A E. Franklin St.",
      "city": "Evansville",
      "zipCode": "47711",
      "expirationDate": "",
      "maleBeds": "",
      "femaleBeds": "",
      "totalBeds": "62",
      "phoneNum": "812-423-1949",
      "contractWebSite": ""
    },
    {
      "state": "AK",
      "region": "Western",
      "name": "Anchorage RRC Cordova Center",
      "service": "",
      "contractNum": "additional_94",
      "latitude": "37.979880",
      "longitude": "-87.548950",
      "url": "https://www.bop.gov",
      "timeZone": "W",
      "address": "130 Cordova Street",
      "city": "Anchorage",
      "zipCode": "99501",
      "expirationDate": "",
      "maleBeds": "",
      "femaleBeds": "",
      "totalBeds": "58",
      "phoneNum": "907-274-1022",
      "contractWebSite": ""
    },
    {
      "state": "KS",
      "region": "South Central",
      "name": "Mirror Inc.",
      "service": "",
      "contractNum": "additional_95",
      "latitude": "37.979880",
      "longitude": "-87.548950",
      "url": "https://www.bop.gov",
      "timeZone": "C",
      "address": "3820 N. Toben",
      "city": "Wichita",
      "zipCode": "67226",
      "expirationDate": "",
      "maleBeds": "",
      "femaleBeds": "",
      "totalBeds": "53",
      "phoneNum": "316-634-3954",
      "contractWebSite": ""
    },
    {
      "state": "TX",
      "region": "South Central",
      "name": "Dismas Charities",
      "service": "",
      "contractNum": "additional_96",
      "latitude": "31.758600",
      "longitude": "-106.396880",
      "url": "https://www.bop.gov",
      "timeZone": "C",
      "address": "7011 Alameda Avenue",
      "city": "El Paso",
      "zipCode": "79915",
      "expirationDate": "",
      "maleBeds": "",
      "femaleBeds": "",
      "totalBeds": "117",
      "phoneNum": "915-781-1122",
      "contractWebSite": ""
    },
    {
      "state": "WY",
      "region": "North Central",
      "name": "Community Education Centers",
      "service": "",
      "contractNum": "additional_97",
      "latitude": "42.841800",
      "longitude": "-106.389050",
      "url": "https://www.bop.gov",
      "timeZone": "M",
      "address": "10007 Landmark Lane",
      "city": "Mills",
      "zipCode": "82644",
      "expirationDate": "",
      "maleBeds": "",
      "femaleBeds": "",
      "totalBeds": "36",
      "phoneNum": "307-268-4840",
      "contractWebSite": ""
    },
    {
      "state": "NJ",
      "region": "NorthEast",
      "name": "The Kintock Group, Inc.",
      "service": "",
      "contractNum": "additional_98",
      "latitude": "39.410660",
      "longitude": "-75.213180",
      "url": "https://www.bop.gov",
      "timeZone": "E",
      "address": "4 South Industrial Blvd",
      "city": "Bridgeton",
      "zipCode": "08302",
      "expirationDate": "",
      "maleBeds": "",
      "femaleBeds": "",
      "totalBeds": "35",
      "phoneNum": "856-459-2700",
      "contractWebSite": ""
    },
    {
      "state": "WA",
      "region": "Western",
      "name": "Pioneer Human Services",
      "service": "",
      "contractNum": "additional_99",
      "latitude": "47.660620",
      "longitude": "-117.356950",
      "url": "https://www.bop.gov",
      "timeZone": "W",
      "address": "3614 E Ferry Ave",
      "city": "Spokane",
      "zipCode": "99202",
      "expirationDate": "",
      "maleBeds": "",
      "femaleBeds": "",
      "totalBeds": "48",
      "phoneNum": "509-535-3572",
      "contractWebSite": ""
    },
    {
      "state": "FL",
      "region": "Southeast",
      "name": "Banyan Community Health",
      "service": "",
      "contractNum": "additional_100",
      "latitude": "25.829300",
      "longitude": "-80.198370",
      "url": "https://www.bop.gov",
      "timeZone": "E",
      "address": "120 N.W. 59th St.",
      "city": "Miami",
      "zipCode": "33127",
      "expirationDate": "",
      "maleBeds": "",
      "femaleBeds": "",
      "totalBeds": "111",
      "phoneNum": "305-758-3634",
      "contractWebSite": ""
    },
    {
      "state": "PA",
      "region": "Northeast",
      "name": "Firetree LTD.",
      "service": "",
      "contractNum": "additional_101",
      "latitude": "40.278510",
      "longitude": "-76.893380",
      "url": "https://www.bop.gov",
      "timeZone": "E",
      "address": "2012 North Fourth Street",
      "city": "Harrisburg",
      "zipCode": "17102",
      "expirationDate": "",
      "maleBeds": "",
      "femaleBeds": "",
      "totalBeds": "45",
      "phoneNum": "717-236-0132",
      "contractWebSite": ""
    },
    {
      "state": "OH",
      "region": "Northeast",
      "name": "Community Corrections Assoc.",
      "service": "",
      "contractNum": "additional_102",
      "latitude": "41.082900",
      "longitude": "-80.657170",
      "url": "https://www.bop.gov",
      "timeZone": "E",
      "address": "1764 Market Street",
      "city": "Youngstown",
      "zipCode": "44507",
      "expirationDate": "",
      "maleBeds": "",
      "femaleBeds": "",
      "totalBeds": "39",
      "phoneNum": "330-742-8664",
      "contractWebSite": ""
    },
    {
      "state": "TN",
      "region": "Southeast",
      "name": "Dismas Charities Nashville",
      "service": "",
      "contractNum": "additional_103",
      "latitude": "36.154140",
      "longitude": "-86.780340",
      "url": "https://www.bop.gov",
      "timeZone": "C",
      "address": "808 Lea Ave",
      "city": "Nashville",
      "zipCode": "37203",
      "expirationDate": "",
      "maleBeds": "",
      "femaleBeds": "",
      "totalBeds": "85",
      "phoneNum": "615-254-0006",
      "contractWebSite": ""
    },
    {
      "state": "ND",
      "region": "Northcentral",
      "name": "Lake Region Law Enforcement CE",
      "service": "",
      "contractNum": "additional_104",
      "latitude": "48.107280",
      "longitude": "-98.866750",
      "url": "https://www.bop.gov",
      "timeZone": "C",
      "address": "222 Walnut Street West",
      "city": "Devils Lake",
      "zipCode": "58301",
      "expirationDate": "",
      "maleBeds": "",
      "femaleBeds": "",
      "totalBeds": "7",
      "phoneNum": "701-662-5323",
      "contractWebSite": ""
    },
    {
      "state": "TN",
      "region": "Southeast",
      "name": "Dismas Charites Inc",
      "service": "",
      "contractNum": "additional_105",
      "latitude": "35.053210",
      "longitude": "-90.010100",
      "url": "https://www.bop.gov",
      "timeZone": "C",
      "address": "1613 Winchester Road",
      "city": "Memphis",
      "zipCode": "38116",
      "expirationDate": "",
      "maleBeds": "",
      "femaleBeds": "",
      "totalBeds": "30",
      "phoneNum": "901-346-3372",
      "contractWebSite": ""
    },
    {
      "state": "WI",
      "region": "Northcentral",
      "name": "Rock Valley Comm Programs Inc.",
      "service": "",
      "contractNum": "additional_106",
      "latitude": "42.598700",
      "longitude": "-89.011500",
      "url": "https://www.bop.gov",
      "timeZone": "M",
      "address": "203 W. Sunny Lane Rd.",
      "city": "Janesville",
      "zipCode": "53546",
      "expirationDate": "",
      "maleBeds": "",
      "femaleBeds": "",
      "totalBeds": "87",
      "phoneNum": "608-741-4510",
      "contractWebSite": ""
    },
    {
      "state": "RI",
      "region": "Northeast",
      "name": "Community Resources Justice",
      "service": "",
      "contractNum": "additional_107",
      "latitude": "41.872690",
      "longitude": "-71.395890",
      "url": "https://www.bop.gov",
      "timeZone": "E",
      "address": "67 Slater Street.",
      "city": "Pawtucket",
      "zipCode": "28600",
      "expirationDate": "",
      "maleBeds": "",
      "femaleBeds": "",
      "totalBeds": "35",
      "phoneNum": "401-722-2135",
      "contractWebSite": ""
    },
    {
      "state": "SC",
      "region": "Southeast",
      "name": "Alston Wilkes Society",
      "service": "",
      "contractNum": "additional_108",
      "latitude": "34.003540",
      "longitude": "-81.028530",
      "url": "https://www.bop.gov",
      "timeZone": "E",
      "address": "1218 Bull Street",
      "city": "Columbia",
      "zipCode": "29201",
      "expirationDate": "",
      "maleBeds": "",
      "femaleBeds": "",
      "totalBeds": "60",
      "phoneNum": "803-765-1394",
      "contractWebSite": ""
    },
    {
      "state": "WA",
      "region": "Western",
      "name": "Pioneer Human Services",
      "service": "",
      "contractNum": "additional_109",
      "latitude": "47.255090",
      "longitude": "-122.405620",
      "url": "https://www.bop.gov",
      "timeZone": "W",
      "address": "1902 Milwaukee Way",
      "city": "Tacoma",
      "zipCode": "98421",
      "expirationDate": "",
      "maleBeds": "",
      "femaleBeds": "",
      "totalBeds": "52",
      "phoneNum": "253-274-2090",
      "contractWebSite": ""
    },
    {
      "state": "DC",
      "region": "MidAtlantic",
      "name": "Reynolds and Associates Inc",
      "service": "",
      "contractNum": "additional_110",
      "latitude": "38.899100",
      "longitude": "-76.984240",
      "url": "https://www.bop.gov",
      "timeZone": "E",
      "address": "1430 G Street NE",
      "city": "Washington",
      "zipCode": "20002",
      "expirationDate": "",
      "maleBeds": "",
      "femaleBeds": "",
      "totalBeds": "46",
      "phoneNum": "202-396-8982",
      "contractWebSite": ""
    },
    {
      "state": "CA",
      "region": "Western",
      "name": "GEO Reentry Inc",
      "service": "",
      "contractNum": "additional_111",
      "latitude": "33.951038",
      "longitude": "-118.255112",
      "url": "https://www.bop.gov",
      "timeZone": "W",
      "address": "9411 S. Central Ave",
      "city": "Los Angeles",
      "zipCode": "90002",
      "expirationDate": "",
      "maleBeds": "",
      "femaleBeds": "",
      "totalBeds": "85",
      "phoneNum": "323-563-1126",
      "contractWebSite": ""
    },
    {
      "state": "ME",
      "region": "Eastern",
      "name": "Pharos House",
      "service": "",
      "contractNum": "additional_112",
      "latitude": "43.657040",
      "longitude": "-70.266810",
      "url": "https://www.bop.gov",
      "timeZone": "E",
      "address": "5 Grant Street",
      "city": "Portland",
      "zipCode": "41010",
      "expirationDate": "",
      "maleBeds": "",
      "femaleBeds": "",
      "totalBeds": "26",
      "phoneNum": "207-774-6021",
      "contractWebSite": ""
    },
    {
      "state": "WV",
      "region": "Eastern",
      "name": "Dismas Charities",
      "service": "",
      "contractNum": "additional_113",
      "latitude": "38.376490",
      "longitude": "-81.783010",
      "url": "https://www.bop.gov",
      "timeZone": "E",
      "address": "113 Edgar Street",
      "city": "St. Albans",
      "zipCode": "25177",
      "expirationDate": "",
      "maleBeds": "",
      "femaleBeds": "",
      "totalBeds": "74",
      "phoneNum": "304-722-5801",
      "contractWebSite": ""
    },
    {
      "state": "PA",
      "region": "Eastern",
      "name": "Renewal Inc.",
      "service": "",
      "contractNum": "additional_114",
      "latitude": "40.440240",
      "longitude": "-80.006970",
      "url": "https://www.bop.gov",
      "timeZone": "E",
      "address": "339 Blvd Of the Allies",
      "city": "Pittsburgh",
      "zipCode": "15222",
      "expirationDate": "",
      "maleBeds": "",
      "femaleBeds": "",
      "totalBeds": "139",
      "phoneNum": "412-697-1616",
      "contractWebSite": ""
    },
    {
      "state": "WI",
      "region": "Northcentral",
      "name": "Rock County Sheriff's Dept.",
      "service": "",
      "contractNum": "additional_115",
      "latitude": "42.730050",
      "longitude": "-89.032820",
      "url": "https://www.bop.gov",
      "timeZone": "C",
      "address": "200 E. Highway 14",
      "city": "Janesville",
      "zipCode": "53545",
      "expirationDate": "",
      "maleBeds": "",
      "femaleBeds": "",
      "totalBeds": "3",
      "phoneNum": "608-757-7960",
      "contractWebSite": ""
    },
    {
      "state": "WV",
      "region": "Eastern",
      "name": "Dismas Charities",
      "service": "",
      "contractNum": "additional_116",
      "latitude": "39.287410",
      "longitude": "-80.307190",
      "url": "https://www.bop.gov",
      "timeZone": "E",
      "address": "55 Columbia Blvd.",
      "city": "Clarksburg",
      "zipCode": "26301",
      "expirationDate": "",
      "maleBeds": "",
      "femaleBeds": "",
      "totalBeds": "48",
      "phoneNum": "304-906-4123",
      "contractWebSite": ""
    },
    {
      "state": "KS",
      "region": "Central",
      "name": "Butler County Jail",
      "service": "",
      "contractNum": "additional_117",
      "latitude": "37.813570",
      "longitude": "-96.829950",
      "url": "https://www.bop.gov",
      "timeZone": "C",
      "address": "701 S. Stone Road",
      "city": "El Dorado",
      "zipCode": "67042",
      "expirationDate": "",
      "maleBeds": "",
      "femaleBeds": "",
      "totalBeds": "90",
      "phoneNum": "316-322-4163",
      "contractWebSite": ""
    },
    {
      "state": "TX",
      "region": "Central",
      "name": "Salvation Army",
      "service": "",
      "contractNum": "additional_118",
      "latitude": "31.554350",
      "longitude": "-97.126480",
      "url": "https://www.bop.gov",
      "timeZone": "C",
      "address": "500 South 4th Street",
      "city": "Waco",
      "zipCode": "76706",
      "expirationDate": "",
      "maleBeds": "",
      "femaleBeds": "",
      "totalBeds": "65",
      "phoneNum": "254-756-7276",
      "contractWebSite": ""
    },
    {
      "state": "LA",
      "region": "South Central",
      "name": "Re-Entry Development LLC.",
      "service": "",
      "contractNum": "additional_119",
      "latitude": "30.460350",
      "longitude": "-91.121800",
      "url": "https://www.bop.gov",
      "timeZone": "C",
      "address": "6753 Cezanne Ave.",
      "city": "Baton Rouge",
      "zipCode": "70806",
      "expirationDate": "",
      "maleBeds": "",
      "femaleBeds": "",
      "totalBeds": "37",
      "phoneNum": "225-924-5757",
      "contractWebSite": ""
    },
    {
      "state": "AL",
      "region": "South Central",
      "name": "Keeton Corrections Inc.",
      "service": "",
      "contractNum": "additional_120",
      "latitude": "30.671400",
      "longitude": "-87.939180",
      "url": "https://www.bop.gov",
      "timeZone": "C",
      "address": "4901 Battleship Parkway",
      "city": "Spanish Fort",
      "zipCode": "36527",
      "expirationDate": "",
      "maleBeds": "",
      "femaleBeds": "",
      "totalBeds": "68",
      "phoneNum": "251-626-5094",
      "contractWebSite": ""
    },
    {
      "state": "AZ",
      "region": "South Western",
      "name": "Behavioral Systems Florence",
      "service": "",
      "contractNum": "additional_121",
      "latitude": "30.671400",
      "longitude": "-87.939180",
      "url": "https://www.bop.gov",
      "timeZone": "M",
      "address": "950 E. Diversion Dam Road",
      "city": "Florence",
      "zipCode": "85132",
      "expirationDate": "",
      "maleBeds": "",
      "femaleBeds": "",
      "totalBeds": "92",
      "phoneNum": "520-868-8800",
      "contractWebSite": ""
    },
    {
      "state": "VA",
      "region": "Mid-Atlantic",
      "name": "Core Civic",
      "service": "",
      "contractNum": "additional_122",
      "latitude": "37.015690",
      "longitude": "-76.448940",
      "url": "https://www.bop.gov",
      "timeZone": "E",
      "address": "7718 Warwick Blvd.",
      "city": "Newport News",
      "zipCode": "23607",
      "expirationDate": "",
      "maleBeds": "",
      "femaleBeds": "",
      "totalBeds": "84",
      "phoneNum": "757-244-2700",
      "contractWebSite": ""
    },
    {
      "state": "FL",
      "region": "Southeast",
      "name": "Keeton Corrections Inc.",
      "service": "",
      "contractNum": "additional_123",
      "latitude": "30.474741",
      "longitude": "-87.221860",
      "url": "https://www.bop.gov",
      "timeZone": "E",
      "address": "225 Brent Lane",
      "city": "Pensacola",
      "zipCode": "32503",
      "expirationDate": "",
      "maleBeds": "",
      "femaleBeds": "",
      "totalBeds": "45",
      "phoneNum": "850-474-1991",
      "contractWebSite": ""
    },
    {
      "state": "MI",
      "region": "Northcentral",
      "name": "Kalamazoo Prob Enhancement Pro",
      "service": "",
      "contractNum": "additional_124",
      "latitude": "42.297400",
      "longitude": "-85.553090",
      "url": "https://www.bop.gov",
      "timeZone": "C",
      "address": "537 Chicago Ave.",
      "city": "Kalamazoo",
      "zipCode": "49048",
      "expirationDate": "",
      "maleBeds": "",
      "femaleBeds": "",
      "totalBeds": "17",
      "phoneNum": "269-382-4091",
      "contractWebSite": ""
    },
    {
      "state": "DC",
      "region": "Eastern",
      "name": "Core DC LLC.",
      "service": "",
      "contractNum": "additional_125",
      "latitude": "42.297400",
      "longitude": "-85.553090",
      "url": "https://www.bop.gov",
      "timeZone": "E",
      "address": "1020 Bladensburg Rd",
      "city": "Washington",
      "zipCode": "20002",
      "expirationDate": "",
      "maleBeds": "",
      "femaleBeds": "",
      "totalBeds": "250",
      "phoneNum": "202-394-4000",
      "contractWebSite": ""
    },
    {
      "state": "NC",
      "region": "Eastern",
      "name": "Alston Wilkes Society Inc.",
      "service": "",
      "contractNum": "additional_126",
      "latitude": "35.109010",
      "longitude": "-78.880850",
      "url": "https://www.bop.gov",
      "timeZone": "E",
      "address": "3611-B Ramsey Street",
      "city": "Fayetteville",
      "zipCode": "28311",
      "expirationDate": "",
      "maleBeds": "",
      "femaleBeds": "",
      "totalBeds": "38",
      "phoneNum": "910-364-2530",
      "contractWebSite": ""
    },
    {
      "state": "MI",
      "region": "North Central",
      "name": "Kalamazoo Prob Enhancement Pro",
      "service": "",
      "contractNum": "additional_127",
      "latitude": "42.337100",
      "longitude": "-85.145140",
      "url": "https://www.bop.gov",
      "timeZone": "E",
      "address": "203B Brigen",
      "city": "Battle Creek",
      "zipCode": "49014",
      "expirationDate": "08-31-2020",
      "maleBeds": "",
      "femaleBeds": "",
      "totalBeds": "18",
      "phoneNum": "269-963-2085",
      "contractWebSite": ""
    },
    {
      "state": "MI",
      "region": "North Central",
      "name": "Kalamazoo Prob Enhancement Pro",
      "service": "",
      "contractNum": "additional_128",
      "latitude": "42.123860",
      "longitude": "-86.445820",
      "url": "https://www.bop.gov",
      "timeZone": "E",
      "address": "497 Waukonda Avenue",
      "city": "Benton Harbor",
      "zipCode": "49022",
      "expirationDate": "11-30-2022",
      "maleBeds": "",
      "femaleBeds": "",
      "totalBeds": "10",
      "phoneNum": "269-962-1284",
      "contractWebSite": ""
    },
    {
      "state": "MO",
      "region": "North Central",
      "name": "Cydkam Center LLC",
      "service": "",
      "contractNum": "additional_129",
      "latitude": "36.561830",
      "longitude": "-90.520320",
      "url": "https://www.bop.gov",
      "timeZone": "C",
      "address": "1081 Hart Street Box 68",
      "city": "Neelyville",
      "zipCode": "63954",
      "expirationDate": "09-30-2029",
      "maleBeds": "",
      "femaleBeds": "",
      "totalBeds": "38",
      "phoneNum": "573-989-6514",
      "contractWebSite": ""
    },
    {
      "state": "CT",
      "region": "Northeast",
      "name": "Drapelick Center",
      "service": "",
      "contractNum": "additional_130",
      "latitude": "41.827620",
      "longitude": "-72.698480",
      "url": "https://www.bop.gov",
      "timeZone": "E",
      "address": "1095 Blue Hills Avenue",
      "city": "Hartford",
      "zipCode": "06002",
      "expirationDate": "12-01-2021",
      "maleBeds": "",
      "femaleBeds": "",
      "totalBeds": "97",
      "phoneNum": "860-286-9833",
      "contractWebSite": ""
    },
    {
      "state": "OK",
      "region": "Central",
      "name": "CoreCivic Tulsa, OK",
      "service": "",
      "contractNum": "additional_131",
      "latitude": "36.244010",
      "longitude": "-95.993380",
      "url": "https://www.bop.gov",
      "timeZone": "C",
      "address": "6101 N Martin Luther King Jr. Blvd.",
      "city": "Tulsa",
      "zipCode": "74126",
      "expirationDate": "01-31-2026",
      "maleBeds": "",
      "femaleBeds": "",
      "totalBeds": "125",
      "phoneNum": "539-424-5361",
      "contractWebSite": ""
    },
    {
      "state": "TN",
      "region": "Mid-Atlantic",
      "name": "Blount County Justice Center",
      "service": "",
      "contractNum": "additional_132",
      "latitude": "35.753810",
      "longitude": "-83.958240",
      "url": "https://www.bop.gov",
      "timeZone": "C",
      "address": "940 E. Lamar Alexander Pkwy",
      "city": "Maryville",
      "zipCode": "37804",
      "expirationDate": "",
      "maleBeds": "",
      "femaleBeds": "",
      "totalBeds": "120",
      "phoneNum": "865-273-5027",
      "contractWebSite": ""
    },
    {
      "state": "MS",
      "region": "Southeast",
      "name": "RRC Tupelo, Mississippi",
      "service": "",
      "contractNum": "additional_133",
      "latitude": "34.258339",
      "longitude": "-88.703522",
      "url": "https://www.bop.gov",
      "timeZone": "C",
      "address": "100 Tishomingo Street",
      "city": "Tupelo",
      "zipCode": "38804",
      "expirationDate": "11-30-2029",
      "maleBeds": "",
      "femaleBeds": "",
      "totalBeds": "60",
      "phoneNum": "662-620-2124",
      "contractWebSite": ""
    },
    {
      "state": "FL",
      "region": "Southeast",
      "name": "Geo Residential Reentry Center",
      "service": "",
      "contractNum": "additional_134",
      "latitude": "27.963540",
      "longitude": "-82.391850",
      "url": "https://www.bop.gov",
      "timeZone": "E",
      "address": "5625 East Broadway Avenue",
      "city": "Tampa",
      "zipCode": "33619",
      "expirationDate": "09-01-2022",
      "maleBeds": "",
      "femaleBeds": "",
      "totalBeds": "177",
      "phoneNum": "813-309-6246",
      "contractWebSite": ""
    },
    {
      "state": "PA",
      "region": "Northeast",
      "name": "Scranton Pavilion",
      "service": "",
      "contractNum": "additional_135",
      "latitude": "41.413370",
      "longitude": "-75.659100",
      "url": "https://www.bop.gov",
      "timeZone": "E",
      "address": "409-411 Olive Street",
      "city": "Scranton",
      "zipCode": "18509",
      "expirationDate": "06-01-2022",
      "maleBeds": "",
      "femaleBeds": "",
      "totalBeds": "35",
      "phoneNum": "570-955-3802",
      "contractWebSite": ""
    },
    {
      "state": "OH",
      "region": "Northeast",
      "name": "Talbert House For Women",
      "service": "",
      "contractNum": "additional_136",
      "latitude": "39.126919",
      "longitude": "-84.549026",
      "url": "https://www.bop.gov",
      "timeZone": "C",
      "address": "1616 Harrison Avenue",
      "city": "Cincinnati",
      "zipCode": "45214",
      "expirationDate": "02-28-2022",
      "maleBeds": "",
      "femaleBeds": "",
      "totalBeds": "13",
      "phoneNum": "513-557-2500",
      "contractWebSite": ""
    },
    {
      "state": "KY",
      "region": "Mid-Atlantic",
      "name": "Lexington/Fayette Co Detn Ctr",
      "service": "",
      "contractNum": "additional_137",
      "latitude": "38.065630",
      "longitude": "-84.545140",
      "url": "https://www.bop.gov",
      "timeZone": "E",
      "address": "600 Old Frankfort Circle",
      "city": "Lexington",
      "zipCode": "40510",
      "expirationDate": "",
      "maleBeds": "",
      "femaleBeds": "",
      "totalBeds": "15",
      "phoneNum": "859-425-2701",
      "contractWebSite": ""
    },
    {
      "state": "IN",
      "region": "North Central",
      "name": "Pact Inc. Pact-Bradley House",
      "service": "",
      "contractNum": "additional_138",
      "latitude": "41.716710",
      "longitude": "-86.900190",
      "url": "https://www.bop.gov",
      "timeZone": "C",
      "address": "132 East 6th St.",
      "city": "Michigan City",
      "zipCode": "46360",
      "expirationDate": "",
      "maleBeds": "",
      "femaleBeds": "",
      "totalBeds": "65",
      "phoneNum": "219-872-9139",
      "contractWebSite": ""
    },
	{
      "state": "OK",
      "region": "Central",
      "name": "CORECIVIC-OK REENTRY OPP.CTR",
      "service": "",
      "contractNum": "additional_139",
      "latitude": "35.461450",
      "longitude": "-97.565420",
      "url": "https://www.bop.gov",
      "timeZone": "C",
      "address": "400 SOUTH MAY AVE.",
      "city": "OKLAHOMA CITY",
      "zipCode": "73109",
      "expirationDate": "01-31-2026",
      "maleBeds": "",
      "femaleBeds": "",
      "totalBeds": "125",
      "phoneNum": "405-232-8233",
      "contractWebSite": ""
    },
	{
      "state": "OH",
      "region": "Northeast",
      "name": "ALVIS HOUSE FOR WOMEN",
      "service": "",
      "contractNum": "additional_140",
      "latitude": "39.960730",
      "longitude": "-82.976690",
      "url": "https://www.bop.gov",
      "timeZone": "",
      "address": "868 BRYDEN RD",
      "city": "COLUMBUS",
      "zipCode": "43205",
      "expirationDate": "11-30-2029",
      "maleBeds": "",
      "femaleBeds": "",
      "totalBeds": "7",
      "phoneNum": "614-252-1788",
      "contractWebSite": ""
    },
    {
      "state": "GA",
      "region": "Southeast",
      "name": "RRC DISMAS HOUSE OF MACON",
      "service": "",
      "contractNum": "additional_141",
      "latitude": "32.831850",
      "longitude": "-83.632490",
      "url": "https://www.bop.gov",
      "timeZone": "E",
      "address": "744 SECOND STREET",
      "city": "MACON",
      "zipCode": "31201",
      "expirationDate": "02-29-2028",
      "maleBeds": "",
      "femaleBeds": "",
      "totalBeds": "81",
      "phoneNum": "478-745-8733",
      "contractWebSite": ""
    },
	{
      "state": "MS",
      "region": "Southeast",
      "name": "RRC, JACKSON, MISSISSIPPI",
      "service": "",
      "contractNum": "additional_142",
      "latitude": "32.285960",
      "longitude": "-90.185690",
      "url": "https://www.bop.gov",
      "timeZone": "C",
      "address": "233 RANKIN STREET",
      "city": "JACKSON",
      "zipCode": "39201",
      "expirationDate": "06-30-2030",
      "maleBeds": "",
      "femaleBeds": "",
      "totalBeds": "45",
      "phoneNum": "769-333-9275",
      "contractWebSite": ""
    },
	{
      "state": "FL",
      "region": "Southeast",
      "name": "OCALA RESIDENTL REENTRY CENTER",
      "service": "",
      "contractNum": "additional_143",
      "latitude": "29.229000",
      "longitude": "-82.083191",
      "url": "https://www.bop.gov",
      "timeZone": "E",
      "address": "3838 NE 41ST ST.",
      "city": "OCALA",
      "zipCode": "34479",
      "expirationDate": "08-31-2023",
      "maleBeds": "",
      "femaleBeds": "",
      "totalBeds": "48",
      "phoneNum": "352-368-2127",
      "contractWebSite": ""
    },
	{
      "state": "ND",
      "region": "North Central",
      "name": "COMMUNITY EXTENDED NUCLEAR TRA",
      "service": "",
      "contractNum": "additional_144",
      "latitude": "46.866540",
      "longitude": "-96.838110",
      "url": "https://www.bop.gov",
      "timeZone": "C",
      "address": "33501 WESTRAC DRIVE",
      "city": "FARGO",
      "zipCode": "58103",
      "expirationDate": "08-31-2030",
      "maleBeds": "",
      "femaleBeds": "",
      "totalBeds": "14",
      "phoneNum": "701-365-4199",
      "contractWebSite": ""
    },
	{
      "state": "KS",
      "region": "South Central",
      "name": "CORRECTIONAL SOLUTIONS GROUP",
      "service": "",
      "contractNum": "additional_145",
      "latitude": "37.721210",
      "longitude": "-97.331640",
      "url": "https://www.bop.gov",
      "timeZone": "C",
      "address": "703 EAST 21ST STREET NORTH",
      "city": "WICHITA",
      "zipCode": "67214",
      "expirationDate": "10-31-2025",
      "maleBeds": "",
      "femaleBeds": "",
      "totalBeds": "85",
      "phoneNum": "316-867-2344",
      "contractWebSite": ""
    },
	{
      "state": "FL",
      "region": "Southeast",
      "name": "BRIDGES REINTEGRATION CENTER",
      "service": "",
      "contractNum": "additional_146",
      "latitude": "33.33115",
      "longitude": "-81.74858",
      "url": "https://www.bop.gov",
      "timeZone": "E",
      "address": "601 AGMAC AVENUE SUITE A",
      "city": "JACKSONVILLE",
      "zipCode": "32254",
      "expirationDate": "07-31-2031",
      "maleBeds": "",
      "femaleBeds": "",
      "totalBeds": "68",
      "phoneNum": "904-240-4111",
      "contractWebSite": ""
    },
	{
      "state": "PA",
      "region": "Northeast",
      "name": "RENEWAL INC FEMALES",
      "service": "",
      "contractNum": "additional_147",
      "latitude": "40.435320",
      "longitude": "-79.994240",
      "url": "https://www.bop.gov",
      "timeZone": "E",
      "address": "704 2ND AVENUE",
      "city": "PITTSBURGH",
      "zipCode": "15219",
      "expirationDate": "05-31-2026",
      "maleBeds": "",
      "femaleBeds": "",
      "totalBeds": "10",
      "phoneNum": "412-697-1616",
      "contractWebSite": ""
    },
	{
      "state": "MI",
      "region": "North Central",
      "name": "HEARTLINE, INC.",
      "service": "",
      "contractNum": "additional_148",
      "latitude": "42.370850",
      "longitude": "-83.005990",
      "url": "https://www.bop.gov",
      "timeZone": "E",
      "address": "8201 SYLVESTER",
      "city": "DETROIT",
      "zipCode": "48214",
      "expirationDate": "02-28-2022",
      "maleBeds": "",
      "femaleBeds": "",
      "totalBeds": "15",
      "phoneNum": "313-923-4200",
      "contractWebSite": ""
    },
	{
      "state": "CA",
      "region": "Western",
      "name": "RRC TURNING POINT - FRESNO",
      "service": "",
      "contractNum": "additional_149",
      "latitude": "36.681070",
      "longitude": "-119.737580",
      "url": "https://www.bop.gov",
      "timeZone": "W",
      "address": "3547 SOUTH GOLDEN STATE BLVD.",
      "city": "FRESNO",
      "zipCode": "93725",
      "expirationDate": "07-31-2026",
      "maleBeds": "",
      "femaleBeds": "",
      "totalBeds": "60",
      "phoneNum": "559-334-6414",
      "contractWebSite": ""
    },
	{
      "state": "WA",
      "region": "Western",
      "name": "PIONEER HUMAN SERVICES",
      "service": "",
      "contractNum": "additional_150",
      "latitude": "47.664110",
      "longitude": "-117.426320",
      "url": "https://www.bop.gov",
      "timeZone": "W",
      "address": "925 W. BROADWAY AVE",
      "city": "SPOKANE",
      "zipCode": "99201",
      "expirationDate": "05-01-2023",
      "maleBeds": "",
      "femaleBeds": "",
      "totalBeds": "47",
      "phoneNum": "509-622-5600",
      "contractWebSite": ""
    }			
  ]
}