{"Messages":{},"pagination":{"recsPerPage":0,"totalRecs":0,"numOfPages":1,"pageNumber":1,"paginationHtml":""},"RRC":[{"state":"AK","region":"Western","name":"GEO Reentry of Alasaka, Inc.","service":"RRC/HOME Conf","contractNum":"15BRRC19D00000205","latitude":"61.220796","longitude":"-149.879618","url":"/locations/rrc/index.jsp?contract\u003d15BRRC19D00000205","timeZone":"","address":"130 Cordova Street","city":"Anchorage","zipCode":"99501","expirationDate":"12-31-2030","maleBeds":"31","femaleBeds":"8","totalBeds":"39","phoneNum":"","contractWebSite":"https://www.georeentry.com/"},{"state":"AL","region":"South Central","name":"Keeton Corrections, Inc. (Birmingham)","service":"RRC","contractNum":"15BRRC19D00000207","latitude":"33.531498   ","longitude":"-86.825878","url":"/locations/rrc/index.jsp?contract\u003d15BRRC19D00000207","timeZone":"C","address":"1609 7th Street North","city":"Birmingham","zipCode":"35204","expirationDate":"11-30-2025","maleBeds":"56","femaleBeds":"14","totalBeds":"70","phoneNum":"850-747-8776","contractWebSite":"https://www.keetoncorrections.com/"},{"state":"AL","region":"Sourtheast","name":"Dismas Charities, Inc.","service":"RRC/Home Conf","contractNum":"15BRRC19D00000100","latitude":"32.322867","longitude":"-86.304056","url":"/locations/rrc/index.jsp?contract\u003d15BRRC19D00000100","timeZone":"C","address":"125 E. Flemming Rd.","city":"Montgomery","zipCode":"36105","expirationDate":"03-31-2030","maleBeds":"25","femaleBeds":"14","totalBeds":"39","phoneNum":"502-636-2033","contractWebSite":"http://www.dismas.com/"},{"state":"AL","region":"Sourtheast","name":"Keeton Corrections, Inc of Spanish Fort","service":"RRC/Home","contractNum":"DJB200247","latitude":"30.671395","longitude":"-87.93917","url":"/locations/rrc/index.jsp?contract\u003dDJB200247","timeZone":"E","address":"4901 Battleship Parkway","city":"Spanish Fort","zipCode":"36527","expirationDate":"02-28-2021","maleBeds":"54","femaleBeds":"6","totalBeds":"60","phoneNum":"850-747-8776","contractWebSite":"http://www.keetoncorrections.net/keetonmainweb2.htm"},{"state":"AR","region":"Western","name":"City of Faith Prison Ministries, Inc.","service":"RRC/Home","contractNum":"15BRRC19D00000145","latitude":"34.739759","longitude":"-92.342264","url":"/locations/rrc/index.jsp?contract\u003d15BRRC19D00000145","timeZone":"C","address":"1401 South Garfield St.","city":"Little Rock","zipCode":"72204","expirationDate":"09-30-2024","maleBeds":"72","femaleBeds":"19","totalBeds":"91","phoneNum":"318-325-6231","contractWebSite":"https://cityoffaith.org/"},{"state":"AZ","region":"Western","name":"Working Alternatives, Inc.","service":"RRC/Home","contractNum":"15BRRC19D00000006","latitude":"35.191631 ","longitude":"-111.666602","url":"/locations/rrc/index.jsp?contract\u003d15BRRC19D00000006","timeZone":"M","address":"1120 W. Kaibab Lane","city":"Flagstaff","zipCode":"86001","expirationDate":"01-31-2030","maleBeds":"32","femaleBeds":"8","totalBeds":"40","phoneNum":"714-898-6400","contractWebSite":""},{"state":"AZ","region":"Western","name":"Behavioral Systems Southwest, Inc.","service":"RRC/Home","contractNum":"15BRRC18D00000068","latitude":"33.038148","longitude":"-111.365042","url":"/locations/rrc/index.jsp?contract\u003d15BRRC18D00000068","timeZone":"M","address":"1950 Diversion Dam Rd.","city":"Florence","zipCode":"85232","expirationDate":"08-31-2023","maleBeds":"60","femaleBeds":"15","totalBeds":"75","phoneNum":"949-492-3574","contractWebSite":"https://behavioralsystemssouthwest.com/"},{"state":"AZ","region":"Western","name":"Behavioral Systems Southwest, Inc.","service":"RRC/Home/Mint","contractNum":"DJB200252","latitude":"33.458877","longitude":"-112.029452","url":"/locations/rrc/index.jsp?contract\u003dDJB200252","timeZone":"M","address":"2420 E. Roosevelt Street","city":"Phoenix","zipCode":"85008","expirationDate":"12-31-2020","maleBeds":"79","femaleBeds":"20","totalBeds":"99","phoneNum":"949-492-3574","contractWebSite":"http://behavioralsystemssouthwest.com"},{"state":"AZ","region":"Western","name":"Dismas Charities, Inc.","service":"RRC/Home","contractNum":"15BRRC19D00000016","latitude":"32.184929","longitude":"-110.916222","url":"/locations/rrc/index.jsp?contract\u003d15BRRC19D00000016","timeZone":"M","address":"3443 South Richey Blvd","city":"Tucson","zipCode":"85713","expirationDate":"03-31-2030","maleBeds":"105","femaleBeds":"27","totalBeds":"132","phoneNum":"502-636-2033","contractWebSite":"http://www.dismas.com/"},{"state":"CA","region":"Western","name":"Working Alternatives, Inc.","service":"RRC/Home Conf","contractNum":"15BRRC19D00000210","latitude":"32.979589 ","longitude":"-115.530553","url":"/locations/rrc/index.jsp?contract\u003d15BRRC19D00000210","timeZone":"P","address":"718 E. Street","city":"Brawley","zipCode":"92227","expirationDate":"03-31-2030","maleBeds":"44","femaleBeds":"11","totalBeds":"55","phoneNum":"714-898-6400","contractWebSite":""},{"state":"CA","region":"Western","name":"GEO Reentry, Inc.","service":"RRC/Home","contractNum":"15BRRC19D00000230","latitude":"34.074263","longitude":"-118.017557","url":"/locations/rrc/index.jsp?contract\u003d15BRRC19D00000230","timeZone":"P","address":"11750 Ramona Blvd","city":"El Monte","zipCode":"91732","expirationDate":"03-31-2030","maleBeds":"56","femaleBeds":"14","totalBeds":"70","phoneNum":"561-999-7621","contractWebSite":"https://www.georeentry.com/"},{"state":"CA","region":"Western","name":"GEO Reentry, Inc.","service":"RRC/Home","contractNum":"15BRRC19D00000076","latitude":"33.951025","longitude":"-118.255084","url":"/locations/rrc/index.jsp?contract\u003d15BRRC19D00000076","timeZone":"P","address":"9411-9415 South Central Avenue","city":"Los Angeles","zipCode":"90002","expirationDate":"05-31-2024","maleBeds":"58","femaleBeds":"15","totalBeds":"73","phoneNum":"561-999-7548","contractWebSite":"https://www.georeentry.com/"},{"state":"CA","region":"Western","name":"GEO Reentry of Alaska, Inc.","service":"RRC/Home","contractNum":"15BRRC20D00000011","latitude":"37.816787","longitude":"-122.252914","url":"/locations/rrc/index.jsp?contract\u003d15BRRC20D00000011","timeZone":"P","address":"205 MacArthur Blvd","city":"Oakland","zipCode":"94610","expirationDate":"07-31-2030","maleBeds":"54","femaleBeds":"13","totalBeds":"67","phoneNum":"561-893-0101","contractWebSite":"https://www.georeentry.com/"},{"state":"CA","region":"Western","name":"Behavioral Systems Southwest, Inc.","service":"RRC/Home Conf","contractNum":"15BRRC19D00000137","latitude":"34.002362","longitude":"-117.403027","url":"/locations/rrc/index.jsp?contract\u003d15BRRC19D00000137","timeZone":"P","address":"3263 Rubidoux Blvd","city":"Riverside","zipCode":"92509","expirationDate":"03-31-2030","maleBeds":"36","femaleBeds":"9","totalBeds":"45","phoneNum":"949-492-3574","contractWebSite":"https://behavioralsystemssouthwest.com/"},{"state":"CA","region":"Western","name":"GEO Care, LLC","service":"RRC","contractNum":"15BRRC18D00000106","latitude":"38.498742","longitude":"-121.461182","url":"/locations/rrc/index.jsp?contract\u003d15BRRC18D00000106","timeZone":"P","address":"7000 Franklin Boulevard","city":"Sacramento","zipCode":"95814","expirationDate":"10-23-2023","maleBeds":"30","femaleBeds":"0","totalBeds":"30","phoneNum":"561-999-7548","contractWebSite":"https://www.geogroup.com/"},{"state":"CA","region":"Western","name":"Correctional Alternatives, Inc.","service":"RRC/Home","contractNum":"DJB200272","latitude":"32.693522 ","longitude":"-117.135058","url":"/locations/rrc/?contract\u003dDJB200272","timeZone":"P","address":"2727 Boston Avenue","city":"San Diego","zipCode":"92113","expirationDate":"05-31-2021","maleBeds":"68","femaleBeds":"17","totalBeds":"85","phoneNum":"619-615-1970","contractWebSite":"http://www.correctionalalternatives.org/"},{"state":"CA","region":"Western","name":"Working Alternatives, Inc.","service":"RRC/Home","contractNum":"15BRRC19D00000209","latitude":"33.801504","longitude":"-117.963399","url":"/locations/rrc/index.jsp?contract\u003d15BRRC19D00000209","timeZone":"P","address":"1112 Barclay Drive","city":"San Diego","zipCode":"92841","expirationDate":"02-28-2025","maleBeds":"47","femaleBeds":"12","totalBeds":"59","phoneNum":"714-898-6400","contractWebSite":"http://www.brawleychamber.com/list/member/working-alternatives-inc-3379"},{"state":"CA","region":"Western","name":"The GEO Group, Inc.","service":"RRC/Home/MINT","contractNum":"DJB200264","latitude":"37.783458 ","longitude":"-122.411101","url":"/locations/rrc/index.jsp?contract\u003dDJB200264","timeZone":"P","address":"111 Taylor Street","city":"San Francisco","zipCode":"94102","expirationDate":"03-31-2021","maleBeds":"112","femaleBeds":"28","totalBeds":"140","phoneNum":"561-999-7548","contractWebSite":"http://geogroup.com/"},{"state":"CA","region":"Western","name":"Behavioral Systems Southwest, Inc.","service":"RRC/Home","contractNum":"15BRRC19D00000236","latitude":"34.218216","longitude":"-118.472428","url":"/locations/rrc/index.jsp?contract\u003d15BRRC19D00000236","timeZone":"P","address":"8141 Orion Avenue","city":"Van Nuys","zipCode":"91406","expirationDate":"03-31-2030","maleBeds":"112","femaleBeds":"28","totalBeds":"140","phoneNum":"949-492-6798","contractWebSite":"https://behavioralsystemssouthwest.com/"},{"state":"CO","region":"Western","name":"RRK Enterprise dba Independence House","service":"RRC/Home Detent","contractNum":"DJB200193","latitude":"39.666264","longitude":"-105.025422","url":"/locations/rrc/index.jsp?contract\u003dDJB200193","timeZone":"M","address":"2765 South Federal Blvd","city":"Denver","zipCode":"80206","expirationDate":"05-31-2020","maleBeds":"85","femaleBeds":"20","totalBeds":"105","phoneNum":"303-919-7231","contractWebSite":"http://ind-house.com/"},{"state":"CT","region":"Northeast","name":"Community Solutions, Inc.","service":"RRC/Multiple","contractNum":"15BRRC20D00000297","latitude":"41.776211","longitude":"-72.687285","url":"/locations/rrc/index.jsp?contract\u003d15BRRC20D00000297","timeZone":"E","address":"10 Irving Street and 136 Collins Street, Waterbury, CT 06710","city":"Hartford","zipCode":"06105","expirationDate":"06-30-2020","maleBeds":"40","femaleBeds":"10","totalBeds":"50","phoneNum":"860-683-7121","contractWebSite":"https://www.csi-online.org/"},{"state":"DC","region":"MidAtlantic","name":"Hope Village, Inc.","service":"RRC","contractNum":"15BRRC19D00000217","latitude":"38.855513","longitude":"-76.972957","url":"/locations/rrc/index.jsp?contract\u003d15BRRC19D00000217","timeZone":"E","address":"2840/2844/2850/2908/2912/2920 Langston Place SE","city":"Washington","zipCode":"20020","expirationDate":"04-30-2020","maleBeds":"243","femaleBeds":"61","totalBeds":"304","phoneNum":"202-678-1077","contractWebSite":""},{"state":"DC","region":"Northeast","name":"Reynolds and Associates, Inc.","service":"RRC/Home Detent","contractNum":"DJB200285","latitude":"38.899136","longitude":"-76.984278","url":"/locations/rrc/index.jsp?contract\u003dDJB200285","timeZone":"E","address":"1430 G St. NE","city":"Washington","zipCode":"20002","expirationDate":"08-31-2021","maleBeds":"0","femaleBeds":"46","totalBeds":"46","phoneNum":"443-837-6964","contractWebSite":""},{"state":"DE","region":"Northeast","name":"Community Solutions, Inc.","service":"RRC/Home","contractNum":"15BRRC19D00000025","latitude":"39.743458","longitude":"-75.52955","url":"/locations/rrc/index.jsp?contract\u003d15BRRC19D00000025","timeZone":"E","address":"1421 March Road","city":"Wilmington","zipCode":"19802","expirationDate":"10-31-2029","maleBeds":"28","femaleBeds":"7","totalBeds":"35","phoneNum":"860-683-7121","contractWebSite":"https://www.csi-online.org/"},{"state":"FL","region":"Sourtheast","name":"Geo Group Inc., The","service":"RRC","contractNum":"15BRRC20D00000277","latitude":"26.391750","longitude":"-80.103187","url":"/locations/rrc/index.jsp?contract\u003d15BRRC20D00000277","timeZone":"","address":"4955 Technology Way","city":"Boca Raton","zipCode":"33431","expirationDate":"09-30-2030","maleBeds":"94","femaleBeds":"23","totalBeds":"117","phoneNum":"561-893-0101","contractWebSite":"https://www.geogroup.com/"},{"state":"FL","region":"Sourtheast","name":"GEO Reentry, Inc.","service":"RRC/Home","contractNum":"15BRRC20D00000288","latitude":"26.391756","longitude":"-80.103095","url":"/location/rrc/index.jsp?contract\u003d15BRRC20D00000288","timeZone":"E","address":"4955 Technology Way","city":"Boca Raton","zipCode":"33431","expirationDate":"04-30-2020","maleBeds":"64","femaleBeds":"16","totalBeds":"80","phoneNum":"561-999-7548","contractWebSite":"https://www.georeentry.com/"},{"state":"FL","region":"Sourtheast","name":"Dismas Charities, Inc.","service":"RRC/Home","contractNum":"15BRRC19D00000208","latitude":"26.055496","longitude":"-80.144882","url":"/locations/rrc/index.jsp?contract\u003d15BRRC19D00000208","timeZone":"E","address":"141 NW 1st Avenue","city":"Dania","zipCode":"33004","expirationDate":"02-28-2031","maleBeds":"64","femaleBeds":"16","totalBeds":"80","phoneNum":"502-636-2033","contractWebSite":"http://www.dismas.com/"},{"state":"FL","region":"Sourtheast","name":"Salvation Army (GA), The (INC); DBA Salvation Army (Ft. Meyers)","service":"RRC/Home","contractNum":"15BRRC20D00000111","latitude":"26.633064","longitude":"-81.863855","url":"/locations/rrc/index.jsp?contract\u003d15BRRC20D00000111","timeZone":"E","address":"2400 Edison Avenue","city":"Fort Myers","zipCode":"33901","expirationDate":"09-30-2030","maleBeds":"25","femaleBeds":"6","totalBeds":"31","phoneNum":"813-383-5789","contractWebSite":"https://salvationarmyflorida.org/fortmyers/"},{"state":"FL","region":"Sourtheast","name":"Keeton Corrections, Inc.; DBA Jacksonville Community Service Center","service":"RRC","contractNum":"15BRRC20D00000284","latitude":"30.348786","longitude":"-81.733705","url":"/locations/rrc/index.jsp?contract\u003d15BRRC20D00000284","timeZone":"E","address":"2020 Dahlia Rd.","city":"Jacksonville","zipCode":"32254","expirationDate":"06-30-2020","maleBeds":"52","femaleBeds":"12","totalBeds":"64","phoneNum":"850-747-8776","contractWebSite":"http://www.keetoncorrections.com/"},{"state":"FL","region":"Sourtheast","name":"Banyan Community Health Center, Inc., dba, Banyan Health Systems, Inc.","service":"RRC/Home Conf","contractNum":"15BRRC20D00000173","latitude":"25.829265","longitude":"-80.198373","url":"/locations/rrc/index.jsp?contract\u003d15BRRC20D00000173","timeZone":"E","address":"140 NW 59th St","city":"Miami","zipCode":"33127","expirationDate":"11-30-2030","maleBeds":"56","femaleBeds":"14","totalBeds":"70","phoneNum":"305-398-6127","contractWebSite":"https://banyanhealth.org/"},{"state":"FL","region":"Sourtheast","name":"Banyan Center dba. Banyan Health Systems","service":"RRC/Home Detent","contractNum":"DJB200212","latitude":"25.8298859","longitude":"-80.1981179","url":"/locations/rrc/index.jsp?contract\u003dDJB200212","timeZone":"E","address":"101 N. W. 59th Street","city":"Miami","zipCode":"33127","expirationDate":"06-30-2020","maleBeds":"77","femaleBeds":"19","totalBeds":"96","phoneNum":"305-398-6127","contractWebSite":"http://banyanhealth.org/"},{"state":"FL","region":"Sourtheast","name":"Riverside Christian Ministries, Inc.; DBA Riverside House","service":"RRC/Home Conf","contractNum":"15BRRC19D00000150","latitude":"25.775266","longitude":"-80.210716","url":"/locations/rrc/index.jsp?contract\u003d15BRRC19D00000150","timeZone":"E","address":"968 NW 2 Street","city":"Miami","zipCode":"33128","expirationDate":"07-31-2029","maleBeds":"71","femaleBeds":"18","totalBeds":"89","phoneNum":"305-326-9799","contractWebSite":"https://riversidehouse.org/"},{"state":"FL","region":"Sourtheast","name":"Keeton Corrections, Inc.;  DBA Ocala Community Service Center","service":"RRC/Home","contractNum":"15BRRC18D00000089","latitude":"29.228908 ","longitude":"-82.083056","url":"/locations/rrc/index.jsp?contract\u003d15BRRC18D00000089","timeZone":"E","address":"3838 NE 41st Street","city":"Ocala","zipCode":"34479","expirationDate":"08-31-2023","maleBeds":"26","femaleBeds":"6","totalBeds":"32","phoneNum":"850-747-8776","contractWebSite":"http://www.keetoncorrections.com/"},{"state":"FL","region":"Sourtheast","name":"Dismas Charities, Inc.","service":"RRC/Home","contractNum":"15BRRC19D00000166","latitude":"28.619132   ","longitude":"-81.435066","url":"/locations/rrc/index.jsp?contract\u003d15BRRC19D00000166","timeZone":"E","address":"6860 Edgewater Commerce Parkway","city":"Orlando","zipCode":"32810","expirationDate":"12-31-2024","maleBeds":"68","femaleBeds":"17","totalBeds":"85","phoneNum":"502-636-2033","contractWebSite":"http://www.dismas.com/"},{"state":"FL","region":"Sourtheast","name":"Keeton Corrections, Inc. (Panama City)","service":"RRC/Home Conf","contractNum":"15BRRC19D00000014","latitude":"30.468165","longitude":"-87.233881","url":"/locations/rrc/index.jsp?contract\u003d15BRRC19D00000014","timeZone":"E","address":"225A Brent Lane","city":"Pensacola","zipCode":"32503","expirationDate":"11-30-2029","maleBeds":"28","femaleBeds":"7","totalBeds":"35","phoneNum":"850-747-8776","contractWebSite":"https://www.keetoncorrections.com/"},{"state":"FL","region":"Sourtheast","name":"Goodwill Industries-Suncoast, Inc.","service":"RRC","contractNum":"15BRRC20D00000273","latitude":"27.866200","longitude":"-82.624623","url":"/locations/rrc/index.jsp?contract\u003d15BRRC20D00000273","timeZone":"E","address":"10596 Grandy Blvd N","city":"Saint Petersburg","zipCode":"33742","expirationDate":"11-30-2020","maleBeds":"15","femaleBeds":"4","totalBeds":"19","phoneNum":"727-523-1512","contractWebSite":"https://goodwill-suncoast.org/"},{"state":"FL","region":"Sourtheast","name":"Keeton Corrections, Inc.;  DBA Tallahassee Community Service Center","service":"RRC/HOME/MINT","contractNum":"15BRRC18D00000075","latitude":"30.406508","longitude":"-84.306618","url":"/locations/rrc/index.jsp?contract\u003d15BRRC18D00000075","timeZone":"E","address":"3190 Spring Hill Rd","city":"Tallahassee","zipCode":"32305","expirationDate":"11-30-2023","maleBeds":"22","femaleBeds":"6","totalBeds":"28","phoneNum":"850-747-8776","contractWebSite":"https://www.keetoncorrections.com/"},{"state":"FL","region":"Sourtheast","name":"Salvation Army (GA), The (INC), DBA; Salvation Army (WPB)","service":"RRC/Home","contractNum":"15BRRC19D00000107","latitude":"26.700014","longitude":"-80.11384","url":"/locations/rrc/index.jsp?contract\u003d15BRRC19D00000107","timeZone":"E","address":"1577 North Military Trail","city":"West Palm Beach","zipCode":"33409","expirationDate":"11-30-2023","maleBeds":"68","femaleBeds":"17","totalBeds":"85","phoneNum":"813-383-5789","contractWebSite":"https://salvationarmyflorida.org/"},{"state":"GA","region":"Sourtheast","name":"Dismas Charities, Inc.","service":"RRC/Home","contractNum":"15BRRC18D00000084","latitude":"33.768462","longitude":"-84.519352","url":"/locations/rrc/index.jsp?contract\u003d15BRRC18D00000084","timeZone":"E","address":"300 Wendell Ct SW Ste 300","city":"Atlanta","zipCode":"30336","expirationDate":"06-30-2023","maleBeds":"132","femaleBeds":"33","totalBeds":"165","phoneNum":"502-636-2033","contractWebSite":"http://www.dismas.com/"},{"state":"GA","region":"Sourtheast","name":"Dismas Charities, Inc.","service":"RRC","contractNum":"DJB200267","latitude":"33.465669 ","longitude":"-81.966278","url":"/locations/rrc/index.jsp?contract\u003dDJB200267","timeZone":"E","address":"602 Taylor Street","city":"Augusta","zipCode":"30901","expirationDate":"06-30-2021","maleBeds":"28","femaleBeds":"7","totalBeds":"35","phoneNum":"561-999-7548","contractWebSite":"https://www.dismas.com/"},{"state":"GA","region":"Sourtheast","name":"Dismas Charities, Inc.","service":"RRC/Home","contractNum":"15BRRC19D00000176","latitude":"32.831955 ","longitude":"-83.632657","url":"/locations/rrc/index.jsp?contract\u003d15BRRC19D00000176","timeZone":"E","address":"744 Second Street","city":"Macon","zipCode":"31201","expirationDate":"09-30-2029","maleBeds":"43","femaleBeds":"11","totalBeds":"54","phoneNum":"502-636-2033","contractWebSite":"http://www.dismas.com/"},{"state":"GA","region":"Sourtheast","name":"Dismas Charities, Inc.","service":"RRC/Home","contractNum":"DJB200246","latitude":"32.079018 ","longitude":"-81.133332","url":"/locations/rrc/index.jsp?contract\u003dDJB200246","timeZone":"E","address":"1006 Lynes Avenue","city":"SAVANNAH","zipCode":"31415","expirationDate":"01-31-2021","maleBeds":"43","femaleBeds":"10","totalBeds":"53","phoneNum":"502-636-2033","contractWebSite":"http://www.dismas.com/georgia/dismas-charities-savannah-ga-helps-urban-christi"},{"state":"IA","region":"Centralized Locations","name":"Dismas Charities, Inc.","service":"RRC/HOME Conf","contractNum":"15BRRC19D00000206","latitude":"42.495038   ","longitude":"-96.384987","url":"/locations/rrc/index.jsp?contract\u003d15BRRC19D00000206","timeZone":"C","address":"420 Chambers Street","city":"Sioux City","zipCode":"51101","expirationDate":"01-31-2025","maleBeds":"28","femaleBeds":"7","totalBeds":"35","phoneNum":"502-636-2033","contractWebSite":"http://www.dismas.com/"},{"state":"ID","region":"Western","name":"Port of Hope Centers, Inc.","service":"RRC/Home Detent","contractNum":"DJB200238","latitude":"43.606358","longitude":"-116.273790","url":"/locations/rrc/index.jsp?contract\u003dDJB200238","timeZone":"M","address":"7360 W. Bethel Street","city":"Boise","zipCode":"83704","expirationDate":"02-28-2021","maleBeds":"22","femaleBeds":"4","totalBeds":"26","phoneNum":"208-463-0118","contractWebSite":"http://portofhopecenters.org/"},{"state":"IL","region":"North Central","name":"Central Territorial of the Salvation Army; DBA Salvation Army Correctional Ser","service":"RRC/Home","contractNum":"15BRRC18D00000091","latitude":"41.895832","longitude":"-87.709295","url":"/locations/rrc/index.jsp?contract\u003d15BRRC18D00000091","timeZone":"C","address":"825 N. Christiana Ave.","city":"Chicago","zipCode":"60651","expirationDate":"08-31-2023","maleBeds":"140","femaleBeds":"31","totalBeds":"171","phoneNum":"312-421-2406","contractWebSite":"https://www.salvationarmy.org/"},{"state":"IL","region":"North Central","name":"Centerstone Of Illinois, Inc.; DBA: SUBSTANCES ABUSE SERVICES","service":"RRC/Home","contractNum":"15BRRC19D00000170","latitude":"37.730171 ","longitude":"-88.939639","url":"/locations/rrc/index.jsp?contract\u003d15BRRC19D00000170","timeZone":"C","address":"1305 West Main Street","city":"Marion","zipCode":"62959","expirationDate":"09-30-2030","maleBeds":"48","femaleBeds":"12","totalBeds":"60","phoneNum":"618-997-5336","contractWebSite":"https://centerstone.org/"},{"state":"IL","region":"North Central","name":"Human Service Center","service":"RRC/Home","contractNum":"15BRRC19D00000175","latitude":"40.700058","longitude":"-89.579848","url":"/locations/rrc/index.jsp?contract\u003d15BRRC19D00000175","timeZone":"C","address":"1005 Northeast Jefferson","city":"Peoria","zipCode":"61603","expirationDate":"08-31-2029","maleBeds":"24","femaleBeds":"6","totalBeds":"30","phoneNum":"309-671-8089","contractWebSite":"http://www.hscpeoria.org/"},{"state":"IL","region":"North Central","name":"Family Guidance Center","service":"RRC/Home","contractNum":"15BRRC19D00000155","latitude":"39.802349","longitude":"-89.640086","url":"/locations/rrc/index.jsp?contract\u003d15BRRC19D00000155","timeZone":"C","address":"120 North Eleventh Street","city":"Springfield","zipCode":"62703","expirationDate":"12-31-2031","maleBeds":"20","femaleBeds":"5","totalBeds":"25","phoneNum":"312-943-6545","contractWebSite":"https://www.fgcinc.org/"},{"state":"IN","region":"North Central","name":"Volunteers of America, Inc.; DBA: Volunteers of America of Indiana","service":"RRC/Home Conf","contractNum":"15BRRC20D00000296","latitude":"37.979794","longitude":"-87.552027","url":"/locations/rrc/index.jsp?contract\u003d15BRRC20D00000296","timeZone":"C","address":"Hope Hall - 811 East Franklin Street","city":"Evansville","zipCode":"47711","expirationDate":"06-30-2020","maleBeds":"40","femaleBeds":"10","totalBeds":"50","phoneNum":"317-686-5809","contractWebSite":"https://www.voaohin.org/"},{"state":"IN","region":"North Central","name":"Volunteers of America Ohio \u0026 Indiana","service":"RRC/Home Cong","contractNum":"15BRRC19D00000147","latitude":"39.779809","longitude":"-86.155368","url":"/locations/rrc/index.jsp?contract\u003d15BRRC19D00000147","timeZone":"C","address":"927 North Pennsylvania Street","city":"Indianapolis","zipCode":"46204","expirationDate":"12-31-2024","maleBeds":"56","femaleBeds":"14","totalBeds":"70","phoneNum":"440-717-1500","contractWebSite":"https://www.voaohin.org/"},{"state":"IN","region":"North Central","name":"PACT, Inc. dba: PACT Bradley Center","service":"RRC/Home Detent","contractNum":"DJB200277","latitude":"41.716708","longitude":"-86.900188","url":"/locations/rrc/index.jsp?contract\u003dDJB200277","timeZone":"C","address":"132 E 6th Street","city":"Michigan City","zipCode":"46360","expirationDate":"06-30-2021","maleBeds":"38","femaleBeds":"10","totalBeds":"48","phoneNum":"219-465-1100","contractWebSite":"http://www.pactchangeslives.com/programs-a-services/bradley-center"},{"state":"KS","region":"Centralized Locations","name":"GEO Reentry, Inc.","service":"RRC/Home","contractNum":"15BRRC19D00000149","latitude":"39.270999","longitude":"-94.893758","url":"/locations/rrc/index.jsp?contract\u003d15BRRC19D00000149","timeZone":"C","address":"Grossman Center, 4715 Brewer Place","city":"Leavenworth","zipCode":"66048","expirationDate":"12-31-2029","maleBeds":"68","femaleBeds":"17","totalBeds":"85","phoneNum":"561-999-7548","contractWebSite":"https://www.georeentry.com/"},{"state":"KS","region":"Centralized Locations","name":"Mirror, Inc.","service":"RRC/Home Conf","contractNum":"15BRRC19D00000165","latitude":"39.021801","longitude":"-95.64942","url":"/locations/rrc/index.jsp?contract\u003d15BRRC19D00000165","timeZone":"C","address":"2201 SE 25th Street","city":"Topeka","zipCode":"66605","expirationDate":"02-28-2025","maleBeds":"36","femaleBeds":"9","totalBeds":"45","phoneNum":"316-283-6743","contractWebSite":"https://mirrorinc.org/"},{"state":"KS","region":"Centralized Locations","name":"Mirror, Inc.","service":"RRC/Multiple","contractNum":"15BRRC20D00000298","latitude":"37.754380","longitude":"-97.231721","url":"/locations/rrc/index.jsp?contract\u003d15BRRC20D00000298","timeZone":"C","address":"3820 N. Toben Street/236 S. Pattie Street","city":"Wichita","zipCode":"67226","expirationDate":"06-30-2020","maleBeds":"48","femaleBeds":"12","totalBeds":"60","phoneNum":"316-283-6743","contractWebSite":"https://mirrorinc.org/"},{"state":"KY","region":"Sourtheast","name":"Dismas Charities, Inc.","service":"RR/Home","contractNum":"15BRRC19D00000151","latitude":"38.071451","longitude":"-84.505738","url":"/locations/rrc/index.jsp?contract\u003d15BRRC19D00000151","timeZone":"E","address":"909 Georgetown Street","city":"Lexington","zipCode":"40511","expirationDate":"07-31-2030","maleBeds":"42","femaleBeds":"11","totalBeds":"53","phoneNum":"502-636-2033","contractWebSite":"http://www.dismas.com/"},{"state":"KY","region":"South Central","name":"Dismas Charities, Inc.","service":"RRC/ Home Conf","contractNum":"15BRRC19D00000007","latitude":"38.234541 ","longitude":"-85.756776","url":"/locations/rrc/index.jsp?contract\u003d15BRRC19D00000007","timeZone":"E","address":"124 West Oak Street","city":"Louisville","zipCode":"40203","expirationDate":"12-31-2029","maleBeds":"40","femaleBeds":"10","totalBeds":"50","phoneNum":"502-636-2033","contractWebSite":"http://www.dismas.com/"},{"state":"KY","region":"South Central","name":"Dismas Charities, Inc.","service":"RRC/Home Detent","contractNum":"DJB200295","latitude":"37.138554   ","longitude":"-83.767738","url":"/locations/rrc/index.jsp?contract\u003dDJB200295","timeZone":"E","address":"845 Muddy Gap Road","city":"Manchester","zipCode":"40962","expirationDate":"01-31-2022","maleBeds":"22","femaleBeds":"5","totalBeds":"27","phoneNum":"502-636-0333","contractWebSite":"http://www.dismas.com/"},{"state":"LA","region":"South Central","name":"Ecumenical House, Inc.","service":"RRC/Home","contractNum":"DJB200259","latitude":"30.460331","longitude":"-91.121785","url":"/locations/rrc/index.jsp?contract\u003dDJB200259","timeZone":"C","address":"6753 Cezanne Avenue","city":"Baton Rouge","zipCode":"70806","expirationDate":"05-31-2021","maleBeds":"23","femaleBeds":"6","totalBeds":"29","phoneNum":"225-926-6047","contractWebSite":"https://start.cortera.com/company/research/k7r9pzs6m/ecumenical-house-inc/"},{"state":"LA","region":"Western","name":"CINC II, Inc.","service":"RRC/Home","contractNum":"15BRRC19D00000154","latitude":"30.224099","longitude":"-93.159881","url":"/locations/rrc/index.jsp?contract\u003d15BRRC19D00000154","timeZone":"C","address":"1101 Cavasback Street","city":"Lake Charles","zipCode":"70615","expirationDate":"12-31-2024","maleBeds":"25","femaleBeds":"7","totalBeds":"32","phoneNum":"405-232-0231","contractWebSite":""},{"state":"LA","region":"Sourtheast","name":"Volunteers of America","service":"RRC/Home Detent","contractNum":"15BRRC18D00000020","latitude":"29.988001","longitude":"-90.06275","url":"/locations/rrc/index.jsp?contract\u003d15BRRC18D00000020","timeZone":"C","address":"2929 St. Anthony Street","city":"METAIRIE","zipCode":"70011","expirationDate":"02-28-2023","maleBeds":"50","femaleBeds":"12","totalBeds":"62","phoneNum":"502-452-1828","contractWebSite":"https://www.voa.org/"},{"state":"LA","region":"Western","name":"City of Faith Prison Ministries, Inc.","service":"RRC/Home","contractNum":"15BRRC19D00000141","latitude":"32.490746","longitude":"-92.110306","url":"/locations/rrc/index.jsp?contract\u003d15BRRC19D00000141","timeZone":"C","address":"1511 Jackson Street","city":"Monroe","zipCode":"71202","expirationDate":"12-31-2023","maleBeds":"33","femaleBeds":"8","totalBeds":"41","phoneNum":"318-325-6231","contractWebSite":"https://cityoffaith.org/"},{"state":"MA","region":"Northeast","name":"Community Resources for Justice, Inc.","service":"RRC/Home","contractNum":"15BRRC20D00000046","latitude":"42.341259","longitude":"-71.087401","url":"/locations/rrc/index.jsp?contract\u003d15BRRC20D00000046","timeZone":"E","address":"307 Huntington Ave","city":"Boston","zipCode":"02115","expirationDate":"08-31-2030","maleBeds":"76","femaleBeds":"19","totalBeds":"95","phoneNum":"617-482-2520","contractWebSite":"https://www.crj.org/"},{"state":"MD","region":"MidAtlantic","name":"Volunteers of America Chesapeake, Inc.","service":"RRC","contractNum":"15BRRC19D00000019","latitude":"39.300627","longitude":"-76.555494","url":"/locations/rrc/index.jsp?contract\u003d15BRRC19D00000019","timeZone":"E","address":"5000 Monument Street","city":"Baltimore","zipCode":"21205","expirationDate":"05-31-2029","maleBeds":"118","femaleBeds":"30","totalBeds":"148","phoneNum":"301-459-2020","contractWebSite":"https://www.voa.org/"},{"state":"ME","region":"Northeast","name":"Pharos House, Inc.; DBA: Halfway House","service":"RRC/Home","contractNum":"15BRRC19D00000003","latitude":"43.657038","longitude":"-70.266811","url":"/locations/rrc/indexljsp?contract\u003d15BRRC19D00000003","timeZone":"E","address":"5 Grant Street","city":"Portland","zipCode":"04101","expirationDate":"02-28-2030","maleBeds":"48","femaleBeds":"12","totalBeds":"60","phoneNum":"207-774-6021","contractWebSite":"http://pharoshouse.org/"},{"state":"MI","region":"North Central","name":"Kalamazoo Probation Enhancement Program","service":"RRC/Home Detent","contractNum":"DJB200239","latitude":"42.337243 ","longitude":"-85.14485","url":"/locations/rrc/index.jsp?contract\u003dDJB200239","timeZone":"C","address":"203 Brigden","city":"Battle Creek","zipCode":"49014","expirationDate":"09-30-2020","maleBeds":"10","femaleBeds":"3","totalBeds":"13","phoneNum":"269-383-0450","contractWebSite":"http://www.kpep.com/"},{"state":"MI","region":"North Central","name":"Kalamazoo Probation Enhancement Program","service":"RRC/Home Detent","contractNum":"15BRRC18D00000001","latitude":"42.297177","longitude":"-85.553498","url":"/locations/rrc/index.jsp?contract\u003d15BRRC18D00000001","timeZone":"C","address":"537 Chicago Avenue","city":"Benton Harbor","zipCode":"49048","expirationDate":"11-30-2022","maleBeds":"17","femaleBeds":"4","totalBeds":"21","phoneNum":"269-383-0450","contractWebSite":"http://www.kpep.com/facilities/kalamazoo-park-st/"},{"state":"MI","region":"North Central","name":"Cherry Street Services, Inc.","service":"RRC/Home Conf","contractNum":"15BRRC19D00000203","latitude":"42.389145","longitude":"-83.024335","url":"/locations/rrc/index.jsp?contract\u003d15BRRC19D00000203","timeZone":"E","address":"8333 Townsend Street","city":"Detroit","zipCode":"49503","expirationDate":"12-31-2029","maleBeds":"117","femaleBeds":"29","totalBeds":"146","phoneNum":"606-965-8215","contractWebSite":"https://www.cherryhealth.org/"},{"state":"MI","region":"North Central","name":"Heartline, Inc.","service":"RRC/Home Detent","contractNum":"DJB200298","latitude":"42.370390 ","longitude":"-83.005895","url":"/locations/rrc/index.jsp?contract\u003dDJB200298","timeZone":"E","address":"8201 Sylvester St","city":"Detroit","zipCode":"48214","expirationDate":"01-31-2022","maleBeds":"11","femaleBeds":"3","totalBeds":"14","phoneNum":"313-923-4200","contractWebSite":"http://www.mhweb.org/wayne/heartline.htm"},{"state":"MI","region":"North Central","name":"Cherry Street Services, Inc.","service":"RRC/Home","contractNum":"15BRRC19D00000005","latitude":"42.959471","longitude":"-85.666483","url":"/locations/rrc/index.jsp?contract\u003d15BRRC19D00000005","timeZone":"E","address":"100 Cherry St SE","city":"Grand Rapids","zipCode":"49503","expirationDate":"03-31-2030","maleBeds":"37","femaleBeds":"9","totalBeds":"46","phoneNum":"616-965-8215","contractWebSite":"https://www.cherryhealth.org/"},{"state":"MI","region":"North Central","name":"Bannum, Inc.","service":"RRC/Home Conf","contractNum":"15BRRC19D00000021","latitude":"43.443975 ","longitude":"-83.913752","url":"/locations/rrc/index.jsp?contract\u003d15BRRC19D00000021","timeZone":"E","address":"2209 Norman St.","city":"Saginaw","zipCode":"48601","expirationDate":"03-31-2030","maleBeds":"20","femaleBeds":"5","totalBeds":"25","phoneNum":"727-372-9213","contractWebSite":""},{"state":"MN","region":"North Central","name":"Volunteers of America, Inc. (Minnesota)","service":"RRC","contractNum":"15BRRC20D00000275","latitude":"44.948044","longitude":"-93.230367","url":"/locations//rrc/index.jsp?contract\u003d15BRRC20D00000275","timeZone":"C","address":"2825 East Lake Street","city":"Minneapolis","zipCode":"55406","expirationDate":"11-30-2020","maleBeds":"97","femaleBeds":"24","totalBeds":"121","phoneNum":"612-877-4252","contractWebSite":"https://www.voamnwi.org/"},{"state":"MO","region":"South Central","name":"Southeast Missouri Behavioral Health, Inc.; DBA:  SEMO CTC","service":"RRC/Home Conf","contractNum":"15BRRC19D00000148","latitude":"37.779144   ","longitude":"-90.385646","url":"/locations/rrc/index.jsp?contract\u003d15BRRC19D00000148","timeZone":"C","address":"5536 Hwy 32","city":"Farmington","zipCode":"63640","expirationDate":"11-30-2029","maleBeds":"52","femaleBeds":"13","totalBeds":"65","phoneNum":"573-431-0554","contractWebSite":"https://semobh.org/"},{"state":"MO","region":"South Central","name":"CYDKAM Center, LLC","service":"RRC/Home Conf","contractNum":"15BRRC19D00000072","latitude":"36.744962","longitude":"-90.394579","url":"/locations/rrc/index.jsp?contract\u003d15BRRC19D00000072","timeZone":"C","address":"1526 Coolidge Street","city":"Poplar Bluff","zipCode":"63901","expirationDate":"03-31-2030","maleBeds":"20","femaleBeds":"5","totalBeds":"25","phoneNum":"573-989-6514","contractWebSite":""},{"state":"MO","region":"North Central","name":"Dismas House of St. Louis","service":"RRC/Home Detent","contractNum":"DJB200282","latitude":"38.666166  ","longitude":"-90.260621","url":"/locations/rrc/index.jsp?contract\u003dDJB200282","timeZone":"C","address":"5025 Cote Brilliante Avenue","city":"Saint Louis","zipCode":"63113","expirationDate":"09-30-2021","maleBeds":"129","femaleBeds":"32","totalBeds":"161","phoneNum":"314-361-2802","contractWebSite":"http://www.dismashouse.net/"},{"state":"MO","region":"North Central","name":"Alpha House of Springfield","service":"RRC/Home","contractNum":"15BRRC19D00000164","latitude":"37.224833","longitude":"-93.250015","url":"/locations/rrc/index.jsp?contract\u003d15BRRC19D00000164","timeZone":"C","address":"2300 Division St.","city":"Springfield","zipCode":"65803","expirationDate":"05-31-2024","maleBeds":"40","femaleBeds":"10","totalBeds":"50","phoneNum":"417-831-3033","contractWebSite":"http://www.thealphahouse.org/"},{"state":"MS","region":"Sourtheast","name":"Dismas Charities, Inc.","service":"RRC/Home Conf","contractNum":"15BRRC19D00000098","latitude":"31.345077 ","longitude":"-89.314451","url":"/locations/rrc/index.jsp?contract\u003d15BRRC19D00000098","timeZone":"C","address":"5209 Highway 42 Bypass","city":"Hattiesburg","zipCode":"39401","expirationDate":"03-31-2030","maleBeds":"30","femaleBeds":"8","totalBeds":"38","phoneNum":"502-636-2033","contractWebSite":"http://www.dismas.com/"},{"state":"MS","region":"Sourtheast","name":"Bannum, Inc.","service":"RRC","contractNum":"15BRRC20D00000276","latitude":"32.288510","longitude":"-90.191095","url":"/locations/rrc/index.jsp?contract\u003d15BRRC20D00000276","timeZone":"C","address":"1031 Wholesale Row","city":"Jackson","zipCode":"39201","expirationDate":"04-30-2020","maleBeds":"31","femaleBeds":"8","totalBeds":"39","phoneNum":"727-372-9213","contractWebSite":""},{"state":"MS","region":"Sourtheast","name":"Dismas Charities, Inc.","service":"RRC/Home","contractNum":"15BRRC20D00000038","latitude":"34.238096","longitude":"-88.704171","url":"/locations/rrc/index.jsp?contract\u003d15BRRC20D00000038","timeZone":"C","address":"Tupelo 100, Tishomingo Street","city":"Tupelo","zipCode":"38804","expirationDate":"05-30-2030","maleBeds":"44","femaleBeds":"11","totalBeds":"55","phoneNum":"502-636-2033","contractWebSite":"http://www.dismas.com/"},{"state":"MT","region":"Western","name":"Alternatives, Inc.; DBA:  Alpha House","service":"RRC/Home Conf","contractNum":"15BRRC19D00000228","latitude":"45.780368","longitude":"-108.510121","url":"/locations/rrc/index.jsp?contract\u003d15BRRC19D00000228","timeZone":"M","address":"3109 1st Avenue","city":"Billings","zipCode":"59101","expirationDate":"05-31-2025","maleBeds":"24","femaleBeds":"6","totalBeds":"30","phoneNum":"406-697-5316","contractWebSite":"http://altinc.net/"},{"state":"MT","region":"Western","name":"Great Falls Pre-Release Services, Inc.","service":"RRC/Home Conf","contractNum":"15BRRC20D00000281","latitude":"47.516715","longitude":"-111.280343","url":"/locations/rrc/index.jsp?contract\u003d15BRRC20D00000281","timeZone":"M","address":"1019 15th St. N.","city":"Great Falls","zipCode":"59401","expirationDate":"10-31-2030","maleBeds":"24","femaleBeds":"6","totalBeds":"30","phoneNum":"406-727-0944","contractWebSite":"https://gfprc.org/"},{"state":"MT","region":"Western","name":"Great Falls Pre-Release Services, Inc.","service":"RRC","contractNum":"15BRRC20D00000299","latitude":"47.516554","longitude":"-111.277910","url":"/locations/rrc/index.jsp?contract\u003d15BRRC20D00000299","timeZone":"M","address":"1019 15th Street N.","city":"Great Falls","zipCode":"59401","expirationDate":"04-30-2020","maleBeds":"39","femaleBeds":"10","totalBeds":"49","phoneNum":"406-727-0944","contractWebSite":"https://gfprc.org/"},{"state":"NC","region":"Sourtheast","name":"Dismas Charities, Inc.","service":"RRC/Home","contractNum":"15BRRC19D00000259","latitude":"36.076992","longitude":"-79.787236","url":"/locations/rrc/index.jsp?contract\u003d15BRRC19D00000259","timeZone":"E","address":"307 N. Church Street","city":"Greensboro","zipCode":"27401","expirationDate":"08-31-2020","maleBeds":"45","femaleBeds":"12","totalBeds":"57","phoneNum":"502-636-0333","contractWebSite":"http://www.dismas.com/"},{"state":"ND","region":"Western","name":"Centre, Inc.","service":"RRC/HOME Conf","contractNum":"15BRRC19D00000199","latitude":"46.825722   ","longitude":"-100.879876","url":"/locations/rrc/index.jsp?contract\u003d15BRRC19D00000199","timeZone":"C","address":"100 6th Ave. SE","city":"Bismarck","zipCode":"58554","expirationDate":"12-31-2024","maleBeds":"22","femaleBeds":"4","totalBeds":"26","phoneNum":"701-373-8315","contractWebSite":"http://centreinc.org/"},{"state":"ND","region":"North Central","name":"Centre, Inc.","service":"RRC/Home Detent","contractNum":"DJB200244","latitude":"46.878359","longitude":"-96.803193","url":"/locations/rrc/index.jsp?contract\u003dDJB200244","timeZone":"C","address":"123 15th Street North","city":"Fargo","zipCode":"58102","expirationDate":"08-31-2020","maleBeds":"56","femaleBeds":"0","totalBeds":"56","phoneNum":"701-373-8315","contractWebSite":"http://centreinc.org/"},{"state":"ND","region":"North Central","name":"Centre, Inc.","service":"RRC/Home Conf","contractNum":"15BRRC20D00000214","latitude":"46.878464","longitude":"-96.803097","url":"/locations/rrc/index.jsp?contract\u003d15BRRC20D00000214","timeZone":"","address":"123 15th Street N","city":"Fargo","zipCode":"58102","expirationDate":"02-28-2031","maleBeds":"46","femaleBeds":"11","totalBeds":"57","phoneNum":"701-373-8315","contractWebSite":"centreinc.org"},{"state":"NE","region":"North Central","name":"Dismas Charities, Inc.","service":"RRC","contractNum":"15BRRC18D00000087","latitude":"40.678001","longitude":"-99.081211","url":"/locations/rrc/index.jsp?contract\u003d15BRRC18D00000087","timeZone":"C","address":"401 Central Avenue","city":"Kearney","zipCode":"68847","expirationDate":"08-31-2023","maleBeds":"32","femaleBeds":"8","totalBeds":"40","phoneNum":"502-636-2033","contractWebSite":"https://www.dismas.com/nebraska/dismas-charities-awarded-kearney-nebraska"},{"state":"NE","region":"North Central","name":"Dismas Charities, Inc.","service":"RRC/Home","contractNum":"15BRRC18D00000077","latitude":"41.318906","longitude":"-95.922851","url":"/locations/rrc/index.jsp?contract\u003d15BRRC18D00000077","timeZone":"C","address":"506 Crown Point Avenue","city":"Omaha","zipCode":"68110","expirationDate":"07-31-2023","maleBeds":"76","femaleBeds":"19","totalBeds":"95","phoneNum":"502-636-2033","contractWebSite":"http://www.dismas.com/"},{"state":"NH","region":"Northeast","name":"Community Resources for Justice, Inc.","service":"RRC/Home","contractNum":"15BRRC20D00000123","latitude":"42.998954","longitude":"-71.464445","url":"/locations/rrc/index.jsp?contract\u003d15BRRC20D00000123","timeZone":"E","address":"1490/1492 Elm St.","city":"Manchester","zipCode":"03101","expirationDate":"09-30-2030","maleBeds":"28","femaleBeds":"7","totalBeds":"35","phoneNum":"617-482-2520","contractWebSite":"https://www.crj.org/"},{"state":"NJ","region":"Northeast","name":"Kintock Group, The","service":"RRC/Home","contractNum":"15BRRC18D00000063","latitude":"39.782366","longitude":"-75.055456","url":"/locations/rrc/index.jsp?contract\u003d15BRRC18D00000063","timeZone":"E","address":"4 South Industrial Blvd","city":"Grenloch","zipCode":"08032","expirationDate":"05-31-2023","maleBeds":"20","femaleBeds":"5","totalBeds":"25","phoneNum":"610-687-1336","contractWebSite":"https://kintock.org/"},{"state":"NJ","region":"Northeast","name":"Community Education Centers; DBA:  CEC","service":"RRC/Home","contractNum":"15BRRC20D00000268","latitude":"40.709364","longitude":"-74.189601","url":"/locations/rrc/index.jsp?contract\u003d15BRRC20D00000268","timeZone":"E","address":"20 Toler Place","city":"Newark","zipCode":"07114","expirationDate":"05-31-2020","maleBeds":"100","femaleBeds":"25","totalBeds":"125","phoneNum":"973-575-3903","contractWebSite":"https://www.geogroup.com/"},{"state":"NJ","region":"Northeast","name":"Kintock Group, The","service":"RRC/Home","contractNum":"15BRRC20D00000262","latitude":"40.702233","longitude":"-74.192945","url":"/locations/rrc/index.jsp?contract\u003d15BRRC20D00000262","timeZone":"E","address":"37-47 Legal Street","city":"Newark","zipCode":"07114","expirationDate":"07-31-2025","maleBeds":"51","femaleBeds":"13","totalBeds":"64","phoneNum":"610-225-3651","contractWebSite":"https://kintock.org/"},{"state":"NM","region":"Western","name":"Dismas Charities, Inc.","service":"RRC/Home","contractNum":"DJB200274","latitude":"35.109646","longitude":"-106.617584","url":"/locations/rrc/index.jsp?contract\u003dDJB200274","timeZone":"M","address":"2331 Menaul Blvd. NE","city":"Albuquerque","zipCode":"87107","expirationDate":"02-28-2021","maleBeds":"94","femaleBeds":"23","totalBeds":"117","phoneNum":"502-636-2033","contractWebSite":"http://www.renewalinc.com/default.aspx"},{"state":"NM","region":"Western","name":"Dismas Charities, Inc.","service":"RRC Multiple","contractNum":"15BRRC19D00000213","latitude":"32.311826 ","longitude":"-106.800314","url":"/locations/rrc/index.jsp?contract\u003d15BRRC19D00000213","timeZone":"M","address":"1595 W. Picacho Ave","city":"Las Cruces","zipCode":"88005","expirationDate":"11-30-2024","maleBeds":"35","femaleBeds":"9","totalBeds":"44","phoneNum":"502-636-2033","contractWebSite":"http://www.dismas.com/"},{"state":"NV","region":"Western","name":"GEO Reentry, Inc.","service":"RRC/Home","contractNum":"DJB200254","latitude":"36.138384","longitude":"-115.169258","url":"/locations/rrc/index.jsp?contract\u003dDJB200254","timeZone":"P","address":"2901 Industrial Road","city":"Las Vegas","zipCode":"89109","expirationDate":"01-31-2021","maleBeds":"68","femaleBeds":"7","totalBeds":"75","phoneNum":"561-999-7548","contractWebSite":"http://www.georeentry.com/"},{"state":"NV","region":"Western","name":"GEO Reentry, Inc.","service":"RRC/Home Conf","contractNum":"15BRRC20D00000245","latitude":"36.138318","longitude":"-115.169182","url":"/locations/rrc/index.jsp?contract\u003d15BRRC20D00000245","timeZone":"P","address":"2901 Sammy Davis Jr. Dr.","city":"Las Vegas","zipCode":"89109","expirationDate":"07-31-2026","maleBeds":"80","femaleBeds":"20","totalBeds":"100","phoneNum":"561-999-7548","contractWebSite":"https://www.geogroup.com/"},{"state":"NY","region":"Northeast","name":"Community Resources for Justice, Inc.","service":"RRC/Home Conf","contractNum":"15BRRC19D00000227","latitude":"42.641847   ","longitude":"-73.761093","url":"/locations/rrc/index.jsp?contract\u003d15BRRC19D00000227","timeZone":"E","address":"35-37 Elizabeth Street","city":"Albany","zipCode":"12202","expirationDate":"01-31-2025","maleBeds":"30","femaleBeds":"8","totalBeds":"38","phoneNum":"617-482-2520","contractWebSite":"https://www.crj.org/"},{"state":"NY","region":"Northeast","name":"CORE Services Group, Inc.","service":"RRC Multiple","contractNum":"15BRRC19D00000249","latitude":"40.702867","longitude":"-73.990514","url":"/locations/rrc/index.jsp?contract\u003d15BRRC19D00000249","timeZone":"E","address":"45 Main Street, Suite 711","city":"Brooklyn","zipCode":"11201","expirationDate":"07-31-2020","maleBeds":"132","femaleBeds":"19","totalBeds":"151","phoneNum":"212-283-7775","contractWebSite":"https://coresvcs.org/"},{"state":"NY","region":"Northeast","name":"Community Resources for Justice, Inc.","service":"RRC/Home","contractNum":"15BRRC20D00000012","latitude":"42.911912","longitude":"-78.861102","url":"/locations/rrc/index.jsp?contract\u003d15BRRC20D00000012","timeZone":"E","address":"117 Glenwood Ave.","city":"Buffalo","zipCode":"14209","expirationDate":"08-31-2030","maleBeds":"30","femaleBeds":"8","totalBeds":"38","phoneNum":"617-482-2520","contractWebSite":"https://www.crj.org/"},{"state":"NY","region":"Northeast","name":"Volunteers of America of Western New York, Inc.","service":"RRC/Home","contractNum":"15BRRC19D00000218","latitude":"43.168463","longitude":"-77.625302","url":"/locations/rrc/index.jsp?contract\u003d15BRRC19D00000218","timeZone":"E","address":"214 Lake Avenue","city":"Rochester","zipCode":"14608","expirationDate":"02-28-2030","maleBeds":"29","femaleBeds":"8","totalBeds":"37","phoneNum":"585-402-7203","contractWebSite":"https://www.voaupny.org/"},{"state":"NY","region":"Northeast","name":"Firetree, Ltd.","service":"RRC/Home Detent","contractNum":"DJB200245","latitude":"43.051038","longitude":"-76.141645","url":"/locations/rrc/index.jsp?contract\u003dDJB200245","timeZone":"E","address":"701 Erie Boulevard East","city":"Syracuse","zipCode":"13210","expirationDate":"11-30-2020","maleBeds":"34","femaleBeds":"4","totalBeds":"38","phoneNum":"570-601-0877","contractWebSite":"http://www.firetree.com/"},{"state":"OH","region":"North Central","name":"Talbert House, Inc.","service":"RRC/Home Detent","contractNum":"DJB200291","latitude":"39.127274 ","longitude":"-84.483785","url":"/locations/rrc/index.jsp?contract\u003dDJB200291","timeZone":"E","address":"2600 Victory Parkway","city":"Cincinnati","zipCode":"45206","expirationDate":"02-28-2022","maleBeds":"34","femaleBeds":"9","totalBeds":"43","phoneNum":"513-751-7747","contractWebSite":"http://www.talberthouse.org/"},{"state":"OH","region":"Northeast","name":"Oriana House, Inc.","service":"RRC/Home Detent","contractNum":"DJB200294","latitude":"41.509298","longitude":"-81.651020","url":"/locations/rrc/index.jsp?contract\u003dDJB200294","timeZone":"E","address":"1829 East 55th Street","city":"Cleveland","zipCode":"44103","expirationDate":"09-30-2021","maleBeds":"63","femaleBeds":"63","totalBeds":"126","phoneNum":"330-535-8116","contractWebSite":"http://www.orianahouse.org/"},{"state":"OH","region":"North Central","name":"Alvis, Inc.","service":"RRC Mulitple","contractNum":"15BRRC19D00000152","latitude":"39.930856","longitude":"-82.942777","url":"/locations/rrc/index.jsp?contract-15BRRC19D00000152","timeZone":"E","address":"1755 Alum Creek Dr","city":"Columbus","zipCode":"43215","expirationDate":"05-31-2030","maleBeds":"48","femaleBeds":"12","totalBeds":"60","phoneNum":"614-252-5326","contractWebSite":"https://alvis180.org/"},{"state":"OH","region":"North Central","name":"Volunteers of America of Greater Ohio","service":"RRC/Home","contractNum":"DJB200236","latitude":"41.664372 ","longitude":"-83.527319","url":"/locations/rrc/index.jsp?contract\u003dDJB200236","timeZone":"E","address":"1205 Champlain St.","city":"Toledo","zipCode":"43604","expirationDate":"06-30-2021","maleBeds":"17","femaleBeds":"4","totalBeds":"21","phoneNum":"614-253-6100","contractWebSite":"http://www.voago.org/residential-reentry"},{"state":"OH","region":"North Central","name":"Community Corrections Association, Inc.; DBA Residential Treatment Center","service":"RRC/Home Detent","contractNum":"DJB200299","latitude":"41.085716","longitude":"-80.656492","url":"/locations/rrc/index.jsp?contract\u003dDJG200 299","timeZone":"E","address":"1507 Market Street","city":"Youngstown","zipCode":"44507","expirationDate":"11-30-2021","maleBeds":"23","femaleBeds":"3","totalBeds":"26","phoneNum":"330-744-5143","contractWebSite":"https://www.bing.com/mapspreview?\u0026ty\u003d18\u0026q\u003dCommunity%20Corrections%20Associatio"},{"state":"OR","region":"Western","name":"Northwest Regional Reentry Center, Inc.","service":"RRC/Home Detent","contractNum":"DJB200230","latitude":"45.566757","longitude":"-122.578957","url":"/locations/rrc/index.jsp?contracts\u003dDJB200230","timeZone":"P","address":"8000 NE 80th Ave","city":"Portland","zipCode":"97218","expirationDate":"06-30-2020","maleBeds":"96","femaleBeds":"24","totalBeds":"120","phoneNum":"503-546-0487","contractWebSite":"http://nw-rrc.org/"},{"state":"PA","region":"Northeast","name":"Firetree, Ltd.; DBA:  Capitol Pavillion","service":"RRC/Home Detent","contractNum":"15BRRC18D00000035","latitude":"40.27862","longitude":"-76.893669","url":"/locations/rrc/index.jsp?contract\u003d15BRRC18D00000035","timeZone":"E","address":"2012 North Fourth Street","city":"Harrisburg","zipCode":"17102","expirationDate":"03-31-2023","maleBeds":"24","femaleBeds":"6","totalBeds":"30","phoneNum":"570-601-0877","contractWebSite":"http://www.firetree.com/"},{"state":"PA","region":"Northeast","name":"Cornell Abraxas Group, Inc.; DBA: Abraxas Youth \u0026 Family Services","service":"SecJuv","contractNum":"15BRRC18C00000036","latitude":"40.191751","longitude":"-75.915657","url":"/locations/rrc/index.jsp?contract\u003d15BRRC18C00000036","timeZone":"E","address":"1000 Academy Dr.","city":"Morgantown","zipCode":"19543","expirationDate":"03-31-2023","maleBeds":"10","femaleBeds":"0","totalBeds":"10","phoneNum":"412-201-4111","contractWebSite":"https://www.geogroup.com/Abraxas_Youth_and_Family_Services"},{"state":"PA","region":"Northeast","name":"Kintock Group, The","service":"RRC/Home","contractNum":"15BRRC19D00000194","latitude":"40.007347","longitude":"-75.122411","url":"/locations/rrc/index.jsp?contract\u003d15BRRC19D00000194","timeZone":"E","address":"301 E. Erie Ave.","city":"Philadelphia","zipCode":"19119","expirationDate":"10-31-2024","maleBeds":"42","femaleBeds":"24","totalBeds":"66","phoneNum":"610-687-1336","contractWebSite":"https://kintock.org/"},{"state":"PA","region":"Northeast","name":"Community Education Centers; DBA:  CEC","service":"RRC/Home","contractNum":"15BRRC19D00000162","latitude":"40.009087","longitude":"-75.116546","url":"/locations/rrc/index.jsp?contract\u003d15BRRC19D00000162","timeZone":"E","address":"600 E. Luzerne Street","city":"Philadelphia","zipCode":"19124","expirationDate":"03-31-2024","maleBeds":"56","femaleBeds":"14","totalBeds":"70","phoneNum":"973-575-3903","contractWebSite":""},{"state":"PA","region":"Northeast","name":"Renewal, Inc.","service":"RRC/Home","contractNum":"DJB200273","latitude":"40.438246","longitude":"-80.000592","url":"/locations/rrc/index.jspc?ontract\u003dDJB200273","timeZone":"E","address":"339 Blvd of the Allies","city":"Pittsburgh","zipCode":"15219","expirationDate":"01-31-2021","maleBeds":"92","femaleBeds":"23","totalBeds":"115","phoneNum":"412-690-2445","contractWebSite":"http://www.renewalinc.com/default.aspx"},{"state":"PA","region":"Northeast","name":"Catholic Social Services of the Diocese of Scranton, Inc.; DBA:  Catholic Soci","service":"RRC/Home Conf","contractNum":"15BRRC19D00000002","latitude":"41.413414","longitude":"-75.659189","url":"/locations/rrc/index.jsp?contract\u003d15BRRC19D00000002","timeZone":"E","address":"409-411 Olive Street","city":"Scranton","zipCode":"18509","expirationDate":"11-30-2029","maleBeds":"16","femaleBeds":"4","totalBeds":"20","phoneNum":"570-342-1295","contractWebSite":"https://www.dioceseofscranton.org/"},{"state":"PR","region":"Sourtheast","name":"Volunteers of America Puerto Rico RRC, Inc.","service":"RRC/Home","contractNum":"15BRRC19D00000015","latitude":"18.442922","longitude":"-66.067035","url":"/locations/rrc/index.jsp?contract\u003d15BRRC19D00000015","timeZone":"E","address":"1606 FERNANDEZ JUNCOS AVE","city":"San Juan","zipCode":"00909","expirationDate":"04-30-2030","maleBeds":"86","femaleBeds":"21","totalBeds":"107","phoneNum":"703-341-5000","contractWebSite":"https://www.voa.org/"},{"state":"RI","region":"Northeast","name":"Community Resources for Justice, Inc.","service":"RRC/Mint","contractNum":"DJB200308","latitude":"41.873024 ","longitude":"-71.396191","url":"/locations/rrc/index.jsp?contract\u003dDJB200308","timeZone":"E","address":"85 Slater Street","city":"Pawtucket","zipCode":"02860","expirationDate":"02-28-2022","maleBeds":"20","femaleBeds":"5","totalBeds":"25","phoneNum":"617482-2520-","contractWebSite":""},{"state":"SC","region":"Sourtheast","name":"Alston Wilkes Society, Inc.; DBA:  Alston Wilkes Central","service":"RRC/Home","contractNum":"15BRRC19D00000041","latitude":"34.031819","longitude":"-81.03659","url":"/locations/rrc/index.jsp?contract\u003d15BRRC19D00000041","timeZone":"E","address":"3519 Medical Drive","city":"Columbia","zipCode":"29203","expirationDate":"12-31-2029","maleBeds":"26","femaleBeds":"7","totalBeds":"33","phoneNum":"803-799-2490","contractWebSite":"http://www.alstonwilkessociety.org/"},{"state":"SC","region":"Sourtheast","name":"Alston Wilkes Society, Inc.; DBA:  Alston Wilkes Central","service":"RRC","contractNum":"15BRRC20D00000295","latitude":"34.003503","longitude":"-81.028576","url":"/locations/rrc/index.jsp?contract\u003d15BRRC20D00000295","timeZone":"E","address":"1218 Bull Street","city":"Columbia","zipCode":"29203","expirationDate":"09-30-2020","maleBeds":"3","femaleBeds":"1","totalBeds":"4","phoneNum":"803-799-2490","contractWebSite":"http://www.alstonwilkessociety.org/"},{"state":"SC","region":"Sourtheast","name":"Bannum, Inc.","service":"RRC/Home Detent","contractNum":"DJB200296","latitude":"34.834864","longitude":"-82.438019","url":"/locations/rrc/ubdex,hso?contract\u003dDJB200296","timeZone":"E","address":"1605 Easley Bridge Rd","city":"Greenville","zipCode":"29611","expirationDate":"11-30-2021","maleBeds":"38","femaleBeds":"10","totalBeds":"48","phoneNum":"727-372-9213","contractWebSite":"https://www.bing.com/mapspreview?\u0026ty\u003d18\u0026q\u003dBannum%20Inc%20Greenville%20SC\u0026ss\u003dyp"},{"state":"SC","region":"Sourtheast","name":"Alston Wilkes Society, Inc.; DBA:  Alston Wilkes Central","service":"RRC/Home","contractNum":"15BRRC19D00000042","latitude":"32.756915","longitude":"-79.970251","url":"/locations/rrc/index.jsp?contract\u003d15BRRC19D00000042","timeZone":"E","address":"441 W. Cheves Street","city":"North Charleston","zipCode":"29405","expirationDate":"12-31-2029","maleBeds":"30","femaleBeds":"7","totalBeds":"37","phoneNum":"803-799-2490","contractWebSite":"http://www.alstonwilkessociety.org/"},{"state":"SD","region":"North Central","name":"Community Education Centers; DBA:  CEC","service":"RRC/Home","contractNum":"DJB200286","latitude":"44.033627","longitude":"-103.191895","url":"/locations/rrc/index.jsp?contract\u003dDJB200286","timeZone":"M","address":"5031 Highway 79 South","city":"Rapid City","zipCode":"57701","expirationDate":"09-30-2021","maleBeds":"44","femaleBeds":"11","totalBeds":"55","phoneNum":"973-575-3903","contractWebSite":"http://www.cecintl.com/"},{"state":"TN","region":"South Central","name":"Southern Territorial Headquarters of the Salvation Army, The","service":"RRC/Home","contractNum":"DJB200243","latitude":"35.043231","longitude":"-85.29587","url":"/locations/rrc/index.jsp?contract\u003dDJB200243","timeZone":"E","address":"800 McCallie Avenue","city":"Chattanooga","zipCode":"37403","expirationDate":"02-28-2021","maleBeds":"52","femaleBeds":"13","totalBeds":"65","phoneNum":"502-357-8548","contractWebSite":"http://csarmy.org/"},{"state":"TN","region":"South Central","name":"Alcoholism Services of Knoxville, Inc; DBA Midway Alcoholism Service of Knoxvi","service":"RRC/Home","contractNum":"15BRRC19D00000146","latitude":"35.978596","longitude":"-83.909296","url":"/locations/rrc/index.jsp?contract\u003d15BRRC19D00000146","timeZone":"E","address":"1515 E. Magnolia Ave","city":"Knoxville","zipCode":"37917","expirationDate":"10-31-2024","maleBeds":"58","femaleBeds":"14","totalBeds":"72","phoneNum":"405-752-8802","contractWebSite":"http://www.midwayrehabcenter.com/"},{"state":"TN","region":"South Central","name":"Dismas Charities, Inc.","service":"DRC","contractNum":"DJB200317","latitude":"35.053206","longitude":"-90.010101","url":"/locations/rrc/index.jsp?contract\u003dDJB200317","timeZone":"C","address":"1613 Winchester Road","city":"Memphis","zipCode":"38116","expirationDate":"10-31-2022","maleBeds":"24","femaleBeds":"6","totalBeds":"30","phoneNum":"502-636-2033","contractWebSite":"http://www.dismas.com/"},{"state":"TN","region":"South Central","name":"Dismas Charities, Inc.","service":"RRC/Home Conf","contractNum":"15BRRC19D00000073","latitude":"35.052587","longitude":"-90.009451","url":"/locations/rrc/index.jsp?contract\u003d15BRRC19D00000073","timeZone":"C","address":"1629 Winchester Rd","city":"Memphis","zipCode":"38116","expirationDate":"03-31-2030","maleBeds":"59","femaleBeds":"32","totalBeds":"91","phoneNum":"502-636-2033","contractWebSite":"http://www.dismas.com/"},{"state":"TN","region":"South Central","name":"Dismas Charities, Inc.","service":"RRC/Home Conf","contractNum":"15BRRC19D00000074","latitude":"36.15463 ","longitude":"-86.780487","url":"/locations/rrc/index.jsp?contract\u003d15BRRC19D00000074","timeZone":"C","address":"808 Lea Avenue","city":"Nashville","zipCode":"37203","expirationDate":"03-31-2030","maleBeds":"52","femaleBeds":"13","totalBeds":"65","phoneNum":"502-636-2033","contractWebSite":"http://www.dismas.com/"},{"state":"TX","region":"Western","name":"ACS Corrections of Texas, LLC","service":"RRC/Home","contractNum":"15BRRC19D00000239","latitude":"30.20224 ","longitude":"-97.642575","url":"/locations/rrc/index\u003djsp?contract\u003d15BRRC19D00000239","timeZone":"","address":"3154 East Hwy 71","city":" Del Valle","zipCode":"78617","expirationDate":"02-28-2025","maleBeds":"61","femaleBeds":"16","totalBeds":"77","phoneNum":"405-752-8802","contractWebSite":""},{"state":"TX","region":"Western","name":"GEO Reentry, Inc.","service":"RRC/Home","contractNum":"15BRRC19D00000200","latitude":"25.994021","longitude":"-97.524352","url":"/locations/rrc/index.jsp?contract\u003d15BRRC19D00000200","timeZone":"C","address":"5965 North Expressway #7783","city":"Brownsville","zipCode":"78526","expirationDate":"12-31-2024","maleBeds":"48","femaleBeds":"12","totalBeds":"60","phoneNum":"561-999-7548","contractWebSite":"https://www.georeentry.com/"},{"state":"TX","region":"Western","name":"Dismas Charities, Inc.","service":"RRC/Home","contractNum":"15BRRC19D00000161","latitude":"27.795654 ","longitude":"-97.401728","url":"/locations/rrc/index.jsp?contract\u003d15BRRC19D00000161","timeZone":"C","address":"1023 Mestina Street","city":"Corpus Christi","zipCode":"78401","expirationDate":"02-28-2029","maleBeds":"32","femaleBeds":"8","totalBeds":"40","phoneNum":"502-636-2033","contractWebSite":"http://www.dismas.com/"},{"state":"TX","region":"Western","name":"Dismas Charities, Inc.","service":"RRC/Home","contractNum":"15BRRC19D00000144","latitude":"29.369203 ","longitude":"-100.888870","url":"/locations/rrc/index.jsp?contract\u003d15BRRC19D00000144","timeZone":"C","address":"1306 East Gibbs St.","city":"Del Rio","zipCode":"78840","expirationDate":"05-30-2024","maleBeds":"29","femaleBeds":"9","totalBeds":"38","phoneNum":"502-636-2033","contractWebSite":"http://www.dismas.com/"},{"state":"TX","region":"Western","name":"Dismas Charities, Inc.","service":"RRC","contractNum":"15BRRC19D00000008","latitude":"31.758272   ","longitude":"-106.397204","url":"/locations/rrc/index.jsp?contract\u003d15BRRC19D00000008","timeZone":"C","address":"7011 Alameda Avenue","city":"El Paso","zipCode":"79915","expirationDate":"07-31-2029","maleBeds":"81","femaleBeds":"20","totalBeds":"101","phoneNum":"502-636-2033","contractWebSite":"http://www.dismas.com/"},{"state":"TX","region":"South Central","name":"Volunteers of America Texas, Inc.","service":"RRC/MINT","contractNum":"DJB200992","latitude":"32.72706","longitude":"-97.28683","url":"/locations/rrc/index.jsp?contract\u003dDJB200992","timeZone":"C","address":"2710 Avenue \"J\"","city":"Fort Worth","zipCode":"76105","expirationDate":"06-30-2020","maleBeds":"69","femaleBeds":"19","totalBeds":"88","phoneNum":"817-429-1087","contractWebSite":"http://www.voatx.org/"},{"state":"TX","region":"Western","name":"Volunteers of America Texas, Inc.","service":"RRC/Home","contractNum":"15BRRC20D00000157","latitude":"32.726751","longitude":"-97.286794","url":"/locations/rrc/index.jsp?contract\u003d15BRRC20D00000157","timeZone":"C","address":"2710 Avenue J","city":"Fort Worth","zipCode":"76105","expirationDate":"12-31-2031","maleBeds":"54","femaleBeds":"14","totalBeds":"68","phoneNum":"817-529-7300","contractWebSite":"https://www.voatx.org/"},{"state":"TX","region":"Western","name":"The Geo Group, Inc.","service":"RRC/HOME Detent","contractNum":"DJB200242","latitude":"29.759591","longitude":"-95.351790","url":"/locations/rrc/index.jsp?contract\u003dDJB200242","timeZone":"C","address":"1819 Commerce Street","city":"Houston","zipCode":"77002","expirationDate":"12-31-2020","maleBeds":"139","femaleBeds":"35","totalBeds":"174","phoneNum":"561-999-7548","contractWebSite":"http://geogroup.com/"},{"state":"TX","region":"Western","name":"Volunteers of America Texas, Inc.","service":"RRC/Home","contractNum":"15BRRC19D00000185","latitude":"32.626581","longitude":"-96.710856","url":"/locations/rrc/index.jsp?contract\u003d15BRRC19D00000185","timeZone":"C","address":"800 W Wintergreen Road","city":"Hutchins","zipCode":"75141","expirationDate":"10-31-2029","maleBeds":"128","femaleBeds":"32","totalBeds":"160","phoneNum":"817-529-7300","contractWebSite":"https://www.voatx.org/"},{"state":"TX","region":"Western","name":"Dismas Charities, Inc.","service":"RRC/Home Detent","contractNum":"15BRRC19D00000009","latitude":"27.563988","longitude":"-99.507997","url":"/locations/rrc/index.jsp?contract\u003d15BRRC19D00000009","timeZone":"C","address":"6752 Gilbert Road","city":"Laredo","zipCode":"78041","expirationDate":"01-31-2029","maleBeds":"15","femaleBeds":"4","totalBeds":"19","phoneNum":"502-636-2033","contractWebSite":"http://www.dismas.com/"},{"state":"TX","region":"Western","name":"Dismas Charities, Inc.","service":"RRC/Home","contractNum":"DJB200276","latitude":"33.550224 ","longitude":"-101.828258","url":"/locations/rrc/index.jsp?contract\u003dDJB200276","timeZone":"C","address":"709 E. 49TH Street","city":"Lubbock","zipCode":"79404","expirationDate":"05-31-2021","maleBeds":"36","femaleBeds":"9","totalBeds":"45","phoneNum":"502-636-2033","contractWebSite":"http://www.dismas.com/"},{"state":"TX","region":"Western","name":"Dismas Charities, Inc.","service":"RRC/HOME Conf","contractNum":"15BRRC19D00000055","latitude":"31.975552","longitude":"-102.10678","url":"/locations/rrc/index.jsp?contract\u003d15BRRC19D00000055","timeZone":"C","address":"24 West Industrial Loop","city":"Midland","zipCode":"79701","expirationDate":"02-28-2025","maleBeds":"53","femaleBeds":"13","totalBeds":"66","phoneNum":"502-636-0333","contractWebSite":"http://www.dismas.com/"},{"state":"TX","region":"Western","name":"Cornerstone Programs Corporation","service":"Secure Juvenile","contractNum":"DJB200342","latitude":"33.199542","longitude":"-101.368215","url":"/locations/rrc/index.jsp?contract\u003dDJB200342","timeZone":"C","address":"800 North Avenue F","city":"Post","zipCode":"79356","expirationDate":"01-31-2023","maleBeds":"15","femaleBeds":"0","totalBeds":"15","phoneNum":"720-895-1000","contractWebSite":"http://cornerstoneprograms.com/"},{"state":"TX","region":"Western","name":"Crosspoint, Inc.","service":"RRC/Home","contractNum":"15BRRC19D00000143","latitude":"29.409920","longitude":"-98.444432","url":"/locations/rrc/index.jsp?contract\u003d15BRRC19D00000143","timeZone":"C","address":"The Summit 301 Yucca/Alvarez House 605 Augusta","city":"San Antonio","zipCode":"78203","expirationDate":"03-31-2025","maleBeds":"80","femaleBeds":"20","totalBeds":"100","phoneNum":"210-225-0864","contractWebSite":"https://crosspointdonation.org/"},{"state":"TX","region":"Western","name":"County Rehabilitation Center, Inc.","service":"RRC/Home Detent","contractNum":"DJB200222","latitude":"32.373303","longitude":"-95.367708","url":"/locations/rrc/index.jsp?contract\u003dDJB200222","timeZone":"C","address":"12181 County Road 46","city":"Tyler","zipCode":"75704","expirationDate":"09-30-2020","maleBeds":"72","femaleBeds":"18","totalBeds":"90","phoneNum":"903-593-3131","contractWebSite":"http://www.whitepages.com/business/county-rehabilitation-center-tyler-tx-2"},{"state":"TX","region":"Western","name":"Salvation Army (GA), The (INC); DBA Salvation Army (Waco)","service":"RRC/Home","contractNum":"15BRRC19D00000142","latitude":"31.554395","longitude":"-97.126558","url":"/locations/rrc/index.jsp?contract\u003d15BRRC19D00000142","timeZone":"C","address":"500 Fourth St.","city":"Waco","zipCode":"76706","expirationDate":"01-31-2025","maleBeds":"36","femaleBeds":"9","totalBeds":"45","phoneNum":"254-756-7276","contractWebSite":"http://www.salvationarmytexas.org/waco/"},{"state":"UT","region":"Western","name":"GEO Reentry, Inc.","service":"RRC/Home","contractNum":"15BRRC19D00000044","latitude":"40.725473","longitude":"-111.935879","url":"/locations/rrc/index.jsp?contract\u003d15BRRC19D00000044","timeZone":"M","address":"1585 West 2100 South","city":"Salt Lake City","zipCode":"84119","expirationDate":"11-30-2029","maleBeds":"54","femaleBeds":"13","totalBeds":"67","phoneNum":"561-999-7621","contractWebSite":"https://www.georeentry.com/"},{"state":"VA","region":"Sourtheast","name":"Secor, Inc.","service":"RRC/Home Detent","contractNum":"15BRRC18D00000032","latitude":"36.903784  ","longitude":"-82.076976","url":"/locations/rrc/index.jsp?contract\u003d15BRRC18D00000032","timeZone":"E","address":"168 Rogers Street","city":"Lebanon","zipCode":"24266","expirationDate":"05-31-2023","maleBeds":"30","femaleBeds":"7","totalBeds":"37","phoneNum":"276-889-1530","contractWebSite":"http://www.secorinc.com/"},{"state":"VA","region":"Sourtheast","name":"Rehabilitation Services, Inc.","service":"RRC/HOME Detent","contractNum":"DJB200283","latitude":"36.867835","longitude":"-76.288741","url":"/locations/rrc/index.jsp?contract\u003dDJB200283","timeZone":"E","address":"7714-7718 Warwick Blvd. Newport News, VA 23067 and 300 W. 20th St.","city":"Norfolk","zipCode":"23517","expirationDate":"01-31-2022","maleBeds":"96","femaleBeds":"24","totalBeds":"120","phoneNum":"443-837-6964","contractWebSite":""},{"state":"WA","region":"Western","name":"Pioneer Human Services; DBA:  Pioneer Industries","service":"RRC/Home Detent","contractNum":"DJB200280","latitude":"47.604089","longitude":"-122.317767","url":"/locations/rrc/index.jsp?contract\u003dDJB200280","timeZone":"P","address":"220 Eleventh Avenue","city":"Seattle","zipCode":"98122","expirationDate":"05-31-2021","maleBeds":"48","femaleBeds":"12","totalBeds":"60","phoneNum":"206-766-7021","contractWebSite":"http://pioneerhumanservices.org/"},{"state":"WA","region":"Western","name":"Pioneer Human Services; DBA:  Pioneer Industries","service":"RRC/Home","contractNum":"DJB200268","latitude":"47.664228","longitude":"-117.426197","url":"/locations/rrc/index.jsp?contract\u003dDJB200268","timeZone":"P","address":"925 W. Broadway Avenue","city":"Spokane","zipCode":"99201","expirationDate":"04-30-2021","maleBeds":"56","femaleBeds":"14","totalBeds":"70","phoneNum":"206-768-9757","contractWebSite":"http://pioneerhumanservices.org/"},{"state":"WA","region":"Western","name":"Pioneer Human Services; DBA:  Pioneer Industries","service":"RRC/Home Detent","contractNum":"15BRRC18D00000037","latitude":"47.254966","longitude":"-122.405559","url":"/locations/rrc/index.jsp?contract\u003d15BRRC18D00000037","timeZone":"P","address":"1902 Milwaukee Way","city":"Tacoma","zipCode":"98421","expirationDate":"02-28-2023","maleBeds":"28","femaleBeds":"7","totalBeds":"35","phoneNum":"206-766-7021","contractWebSite":"http://pioneerhumanservices.com/about/contact-us"},{"state":"WI","region":"North Central","name":"Lutheran Social Services of WI \u0026 Upper MI, Inc.","service":"RRC/Home","contractNum":"15BRRC19D00000153","latitude":"44.786453","longitude":"-91.519366","url":"/locations/rrc/index.jsp?contract\u003d15BRRC19D00000153","timeZone":"C","address":"3136 Craig Rd","city":"Eau Claire","zipCode":"54701","expirationDate":"02-28-2026","maleBeds":"11","femaleBeds":"3","totalBeds":"14","phoneNum":"414-246-2326","contractWebSite":"https://www.lsswis.org/LSS.htm"},{"state":"WI","region":"North Central","name":"Rock Valley Community Program","service":"RRC/Home Detent","contractNum":"DJB200310","latitude":"42.598775","longitude":"-89.015519","url":"/locations/rrc/index.jsp?contract\u003dDJB200310","timeZone":"C","address":"203 West Sunny Lane Rd.","city":"Janesville","zipCode":"53546","expirationDate":"02-28-2022","maleBeds":"53","femaleBeds":"5","totalBeds":"58","phoneNum":"608741-4500-","contractWebSite":"https://www.caring.com/local/assisted-living-facilities-in-janesville-wisconsi"},{"state":"WI","region":"North Central","name":"Wisconsin Community Services","service":"RRC/Home","contractNum":"15BRRC20D00000070","latitude":"43.038981","longitude":"-87.960819","url":"/locations/rrc/index.jsp?contract\u003d15BRRC20D00000070","timeZone":"C","address":"3732 W. Wisconsin Ave., Suite 320","city":"Milwaukee","zipCode":"53208","expirationDate":"05-30-2030","maleBeds":"32","femaleBeds":"8","totalBeds":"40","phoneNum":"414-290-0484","contractWebSite":"https://www.wiscs.org/"},{"state":"WV","region":"Northeast","name":"Dismas Charities, Inc.","service":"RRC","contractNum":"DJB200232","latitude":"39.283904","longitude":"-80.298584","url":"/locations/rrc/index.jsp?contract\u003dDJB200232","timeZone":"E","address":"Lot #6  Columbia Blvd, Harrison County Business Centre","city":"Clarksburg","zipCode":"26301","expirationDate":"07-31-2020","maleBeds":"33","femaleBeds":"8","totalBeds":"41","phoneNum":"502-636-2033","contractWebSite":"http://www.dismas.com/"},{"state":"WV","region":"Northeast","name":"Greenbriar Medical Group, Inc.","service":"RRC/MINT","contractNum":"DJB200256","latitude":"38.134471","longitude":"-80.211931","url":"/locations/rrc/index.jsp?contract\u003dDJB200256","timeZone":"E","address":"4374 Denmar Rd.","city":"Hillsboro","zipCode":"24946","expirationDate":"10-31-2020","maleBeds":"0","femaleBeds":"15","totalBeds":"15","phoneNum":"304-345-3300","contractWebSite":""},{"state":"WV","region":"Northeast","name":"Dismas Charities, Inc.","service":"RRC/Home Detent","contractNum":"DJB200234","latitude":"38.376368","longitude":"-81.78302","url":"/locations/rrc/index.jsp?contract\u003dDJB200234","timeZone":"E","address":"113 Edgar Street","city":"Saint Albans","zipCode":"25177","expirationDate":"09-30-2020","maleBeds":"58","femaleBeds":"11","totalBeds":"69","phoneNum":"502-636-2033","contractWebSite":"http://www.dismas.com/"},{"state":"WY","region":"Western","name":"Community Education Centers; DBA:  CEC","service":"RRC/Home Detent","contractNum":"DJB200306","latitude":"42.892791","longitude":"-106.489571","url":"/locations/rrc/index.jsp?contract\u003dDJB200306","timeZone":"M","address":"10007 Landmark Lane","city":"Casper","zipCode":"82604","expirationDate":"12-31-2021","maleBeds":"26","femaleBeds":"7","totalBeds":"33","phoneNum":"973-575-3903","contractWebSite":"http://www.cecintl.com/"},{"state":"WY","region":"Western","name":"Volunteers of America Northern Rockies","service":"RRC/Home Conf","contractNum":"15BRRC19D00000202","latitude":"44.24047","longitude":"-105.483572","url":"/locations/rrc/index.jsp?contract\u003d15BRRC19D00000202","timeZone":"M","address":"1299 Raymond Avenue","city":"Gillette","zipCode":"82718","expirationDate":"12-31-2024","maleBeds":"16","femaleBeds":"9","totalBeds":"25","phoneNum":"307-672-0475","contractWebSite":"https://www.voanr.org/"}],"FormToken":"pub38185info"}